[
  {
	"model": "location.city",
	"pk": "047f78c0-fd1a-11e8-a7c9-005056c00008",
	"fields": {
	  "name": "T\u1ec9nh B\u1ebfn Tre",
	  "lat": 10.1081553,
	  "lon": 106.4405872,
	  "order": 1,
	  "status": true
	}
  },
  {
	"model": "location.city",
	"pk": "091147cf-fd18-11e8-93f0-005056c00008",
	"fields": {
	  "name": "T\u1ec9nh H\u00e0 Giang",
	  "lat": 22.7662056,
	  "lon": 104.9388853,
	  "order": 1,
	  "status": true
	}
  },
  {
	"model": "location.city",
	"pk": "0d89778f-fd1a-11e8-b0ea-005056c00008",
	"fields": {
	  "name": "T\u1ec9nh Tr\u00e0 Vinh",
	  "lat": 9.812741,
	  "lon": 106.2992912,
	  "order": 1,
	  "status": true
	}
  },
  {
	"model": "location.city",
	"pk": "116128f0-fd19-11e8-a899-005056c00008",
	"fields": {
	  "name": "T\u1ec9nh Ngh\u1ec7 An",
	  "lat": 19.2342489,
	  "lon": 104.9200365,
	  "order": 1,
	  "status": true
	}
  },
  {
	"model": "location.city",
	"pk": "133fde8f-fd1a-11e8-a36a-005056c00008",
	"fields": {
	  "name": "T\u1ec9nh V\u0129nh Long",
	  "lat": 10.0861281,
	  "lon": 106.0169971,
	  "order": 1,
	  "status": true
	}
  },
  {
	"model": "location.city",
	"pk": "13a82830-fd18-11e8-b076-005056c00008",
	"fields": {
	  "name": "T\u1ec9nh Cao B\u1eb1ng",
	  "lat": 22.635689,
	  "lon": 106.2522143,
	  "order": 1,
	  "status": true
	}
  },
  {
	"model": "location.city",
	"pk": "18c2b270-fd1a-11e8-bb85-005056c00008",
	"fields": {
	  "name": "T\u1ec9nh \u0110\u1ed3ng Th\u00e1p",
	  "lat": 10.4937989,
	  "lon": 105.6881788,
	  "order": 1,
	  "status": true
	}
  },
  {
	"model": "location.city",
	"pk": "1e267780-fd18-11e8-b92c-005056c00008",
	"fields": {
	  "name": "T\u1ec9nh B\u1eafc K\u1ea1n",
	  "lat": 22.3032923,
	  "lon": 105.876004,
	  "order": 1,
	  "status": true
	}
  },
  {
	"model": "location.city",
	"pk": "200add00-fd1a-11e8-917b-005056c00008",
	"fields": {
	  "name": "T\u1ec9nh An Giang",
	  "lat": 10.5215836,
	  "lon": 105.1258955,
	  "order": 1,
	  "status": true
	}
  },
  {
	"model": "location.city",
	"pk": "253346c0-fd18-11e8-be46-005056c00008",
	"fields": {
	  "name": "T\u1ec9nh Tuy\u00ean Quang",
	  "lat": 22.1726708,
	  "lon": 105.3131185,
	  "order": 1,
	  "status": true
	}
  },
  {
	"model": "location.city",
	"pk": "28df4ce1-fd1a-11e8-ae27-005056c00008",
	"fields": {
	  "name": "T\u1ec9nh Ki\u00ean Giang",
	  "lat": 9.8249587,
	  "lon": 105.1258955,
	  "order": 1,
	  "status": true
	}
  },
  {
	"model": "location.city",
	"pk": "2b83ae5e-fd19-11e8-9a8a-005056c00008",
	"fields": {
	  "name": "T\u1ec9nh H\u00e0 T\u0129nh",
	  "lat": 18.2943776,
	  "lon": 105.6745247,
	  "order": 1,
	  "status": true
	}
  },
  {
	"model": "location.city",
	"pk": "2d256cee-fd18-11e8-a96a-005056c00008",
	"fields": {
	  "name": "T\u1ec9nh L\u00e0o Cai",
	  "lat": 22.3380865,
	  "lon": 104.1487055,
	  "order": 1,
	  "status": true
	}
  },
  {
	"model": "location.city",
	"pk": "2fe194cf-fd1a-11e8-98d5-005056c00008",
	"fields": {
	  "name": "Th\u00e0nh ph\u1ed1 C\u1ea7n Th\u01a1",
	  "lat": 10.0451618,
	  "lon": 105.7468535,
	  "order": 1,
	  "status": true
	}
  },
  {
	"model": "location.city",
	"pk": "3541b061-fd18-11e8-bbaf-005056c00008",
	"fields": {
	  "name": "T\u1ec9nh \u0110i\u1ec7n Bi\u00ean",
	  "lat": 21.8042309,
	  "lon": 103.1076525,
	  "order": 1,
	  "status": true
	}
  },
  {
	"model": "location.city",
	"pk": "35855e30-fd1a-11e8-952a-005056c00008",
	"fields": {
	  "name": "T\u1ec9nh H\u1eadu Giang",
	  "lat": 9.757898,
	  "lon": 105.6412527,
	  "order": 1,
	  "status": true
	}
  },
  {
	"model": "location.city",
	"pk": "3918174f-fd19-11e8-b672-005056c00008",
	"fields": {
	  "name": "T\u1ec9nh Qu\u1ea3ng B\u00ecnh",
	  "lat": 17.6102715,
	  "lon": 106.3487474,
	  "order": 1,
	  "status": true
	}
  },
  {
	"model": "location.city",
	"pk": "3a33f221-fd1a-11e8-9d8b-005056c00008",
	"fields": {
	  "name": "T\u1ec9nh S\u00f3c Tr\u0103ng",
	  "lat": 9.6003688,
	  "lon": 105.9599539,
	  "order": 1,
	  "status": true
	}
  },
  {
	"model": "location.city",
	"pk": "3c13244f-fd18-11e8-9830-005056c00008",
	"fields": {
	  "name": "T\u1ec9nh Lai Ch\u00e2u",
	  "lat": 22.3686613,
	  "lon": 103.3119085,
	  "order": 1,
	  "status": true
	}
  },
  {
	"model": "location.city",
	"pk": "417258b0-fd1a-11e8-8bcf-005056c00008",
	"fields": {
	  "name": "T\u1ec9nh B\u1ea1c Li\u00eau",
	  "lat": 9.2515555,
	  "lon": 105.5136472,
	  "order": 1,
	  "status": true
	}
  },
  {
	"model": "location.city",
	"pk": "41cbd540-fd18-11e8-a317-005056c00008",
	"fields": {
	  "name": "T\u1ec9nh S\u01a1n La",
	  "lat": 21.1022284,
	  "lon": 103.7289167,
	  "order": 1,
	  "status": true
	}
  },
  {
	"model": "location.city",
	"pk": "42fe6c5e-fd19-11e8-927d-005056c00008",
	"fields": {
	  "name": "T\u1ec9nh Qu\u1ea3ng Tr\u1ecb",
	  "lat": 16.7943472,
	  "lon": 106.963409,
	  "order": 1,
	  "status": true
	}
  },
  {
	"model": "location.city",
	"pk": "45f521b0-fd1a-11e8-9d7f-005056c00008",
	"fields": {
	  "name": "T\u1ec9nh C\u00e0 Mau",
	  "lat": 8.9624099,
	  "lon": 105.1258955,
	  "order": 1,
	  "status": true
	}
  },
  {
	"model": "location.city",
	"pk": "4afc525e-fd19-11e8-9c40-005056c00008",
	"fields": {
	  "name": "T\u1ec9nh Th\u1eeba Thi\u00ean Hu\u1ebf",
	  "lat": 16.467397,
	  "lon": 107.5905326,
	  "order": 1,
	  "status": true
	}
  },
  {
	"model": "location.city",
	"pk": "4c2bee30-fd18-11e8-87b7-005056c00008",
	"fields": {
	  "name": "T\u1ec9nh Y\u00ean B\u00e1i",
	  "lat": 21.6837923,
	  "lon": 104.4551361,
	  "order": 1,
	  "status": true
	}
  },
  {
	"model": "location.city",
	"pk": "530cd600-fd19-11e8-9ffd-005056c00008",
	"fields": {
	  "name": "Th\u00e0nh ph\u1ed1 \u0110\u00e0 N\u1eb5ng",
	  "lat": 16.0544068,
	  "lon": 108.2021667,
	  "order": 1,
	  "status": true
	}
  },
  {
	"model": "location.city",
	"pk": "55c0eeee-fd18-11e8-b0ce-005056c00008",
	"fields": {
	  "name": "T\u1ec9nh Ho\u00e0 B\u00ecnh",
	  "lat": 20.6861265,
	  "lon": 105.3131185,
	  "order": 1,
	  "status": true
	}
  },
  {
	"model": "location.city",
	"pk": "5673cec0-fd19-11e8-b7bd-005056c00008",
	"fields": {
	  "name": "T\u1ec9nh Qu\u1ea3ng Nam",
	  "lat": 15.5393538,
	  "lon": 108.019102,
	  "order": 1,
	  "status": true
	}
  },
  {
	"model": "location.city",
	"pk": "61528300-fd18-11e8-bd01-005056c00008",
	"fields": {
	  "name": "T\u1ec9nh Th\u00e1i Nguy\u00ean",
	  "lat": 21.5613771,
	  "lon": 105.876004,
	  "order": 1,
	  "status": true
	}
  },
  {
	"model": "location.city",
	"pk": "64c211cf-fd19-11e8-a093-005056c00008",
	"fields": {
	  "name": "T\u1ec9nh Qu\u1ea3ng Ng\u00e3i",
	  "lat": 15.0759838,
	  "lon": 108.7125791,
	  "order": 1,
	  "status": true
	}
  },
  {
	"model": "location.city",
	"pk": "6a9740e1-fd18-11e8-82e7-005056c00008",
	"fields": {
	  "name": "T\u1ec9nh L\u1ea1ng S\u01a1n",
	  "lat": 21.8563705,
	  "lon": 106.6291304,
	  "order": 1,
	  "status": true
	}
  },
  {
	"model": "location.city",
	"pk": "7079a470-fd19-11e8-b1e5-005056c00008",
	"fields": {
	  "name": "T\u1ec9nh B\u00ecnh \u0110\u1ecbnh",
	  "lat": 14.1665324,
	  "lon": 108.902683,
	  "order": 1,
	  "status": true
	}
  },
  {
	"model": "location.city",
	"pk": "75dcd7cf-fd18-11e8-b318-005056c00008",
	"fields": {
	  "name": "T\u1ec9nh Qu\u1ea3ng Ninh",
	  "lat": 21.006382,
	  "lon": 107.2925144,
	  "order": 1,
	  "status": true
	}
  },
  {
	"model": "location.city",
	"pk": "79874cc0-fd19-11e8-b9c8-005056c00008",
	"fields": {
	  "name": "T\u1ec9nh Ph\u00fa Y\u00ean",
	  "lat": 13.0881861,
	  "lon": 109.0928764,
	  "order": 1,
	  "status": true
	}
  },
  {
	"model": "location.city",
	"pk": "7f3eec40-fd19-11e8-85cd-005056c00008",
	"fields": {
	  "name": "T\u1ec9nh Kh\u00e1nh H\u00f2a",
	  "lat": 12.2585098,
	  "lon": 109.0526076,
	  "order": 1,
	  "status": true
	}
  },
  {
	"model": "location.city",
	"pk": "7f833db0-fd18-11e8-a569-005056c00008",
	"fields": {
	  "name": "T\u1ec9nh B\u1eafc Giang",
	  "lat": 21.3014947,
	  "lon": 106.6291304,
	  "order": 1,
	  "status": true
	}
  },
  {
	"model": "location.city",
	"pk": "8639930f-fd19-11e8-b99c-005056c00008",
	"fields": {
	  "name": "T\u1ec9nh Ninh Thu\u1eadn",
	  "lat": 11.6738767,
	  "lon": 108.8629572,
	  "order": 1,
	  "status": true
	}
  },
  {
	"model": "location.city",
	"pk": "89ba2e4f-fd19-11e8-9c7a-005056c00008",
	"fields": {
	  "name": "T\u1ec9nh B\u00ecnh Thu\u1eadn",
	  "lat": 11.0903703,
	  "lon": 108.0720781,
	  "order": 1,
	  "status": true
	}
  },
  {
	"model": "location.city",
	"pk": "8b90df8f-fd18-11e8-82f9-005056c00008",
	"fields": {
	  "name": "T\u1ec9nh Ph\u00fa Th\u1ecd",
	  "lat": 21.268443,
	  "lon": 105.2045573,
	  "order": 1,
	  "status": true
	}
  },
  {
	"model": "location.city",
	"pk": "907a642e-fd19-11e8-93f4-005056c00008",
	"fields": {
	  "name": "T\u1ec9nh Kon Tum",
	  "lat": 14.661167,
	  "lon": 107.83885,
	  "order": 1,
	  "status": true
	}
  },
  {
	"model": "location.city",
	"pk": "964da200-fd19-11e8-a287-005056c00008",
	"fields": {
	  "name": "T\u1ec9nh Gia Lai",
	  "lat": 13.8078943,
	  "lon": 108.109375,
	  "order": 1,
	  "status": true
	}
  },
  {
	"model": "location.city",
	"pk": "9a73c180-fd18-11e8-a205-005056c00008",
	"fields": {
	  "name": "T\u1ec9nh V\u0129nh Ph\u00fac",
	  "lat": 21.3608805,
	  "lon": 105.5474373,
	  "order": 1,
	  "status": true
	}
  },
  {
	"model": "location.city",
	"pk": "a2bd5680-fd18-11e8-b571-005056c00008",
	"fields": {
	  "name": "T\u1ec9nh B\u1eafc Ninh",
	  "lat": 21.121444,
	  "lon": 106.1110501,
	  "order": 1,
	  "status": true
	}
  },
  {
	"model": "location.city",
	"pk": "a3c1d8c0-fd19-11e8-a667-005056c00008",
	"fields": {
	  "name": "T\u1ec9nh \u0110\u1eafk L\u1eafk",
	  "lat": 12.7100116,
	  "lon": 108.2377519,
	  "order": 1,
	  "status": true
	}
  },
  {
	"model": "location.city",
	"pk": "a95989a1-fd18-11e8-8967-005056c00008",
	"fields": {
	  "name": "T\u1ec9nh H\u1ea3i D\u01b0\u01a1ng",
	  "lat": 20.9385958,
	  "lon": 106.3206861,
	  "order": 1,
	  "status": true
	}
  },
  {
	"model": "location.city",
	"pk": "ae29e0f0-fd19-11e8-88ee-005056c00008",
	"fields": {
	  "name": "T\u1ec9nh \u0110\u1eafk N\u00f4ng",
	  "lat": 12.2646476,
	  "lon": 107.609806,
	  "order": 1,
	  "status": true
	}
  },
  {
	"model": "location.city",
	"pk": "b1d97b70-fd19-11e8-a3e5-005056c00008",
	"fields": {
	  "name": "T\u1ec9nh L\u00e2m \u0110\u1ed3ng",
	  "lat": 11.5752791,
	  "lon": 108.1428669,
	  "order": 1,
	  "status": true
	}
  },
  {
	"model": "location.city",
	"pk": "b6874180-fd18-11e8-9b94-005056c00008",
	"fields": {
	  "name": "Th\u00e0nh ph\u1ed1 H\u1ea3i Ph\u00f2ng",
	  "lat": 20.8449115,
	  "lon": 106.6880841,
	  "order": 1,
	  "status": true
	}
  },
  {
	"model": "location.city",
	"pk": "b94b4e11-fd19-11e8-8b4f-005056c00008",
	"fields": {
	  "name": "T\u1ec9nh B\u00ecnh Ph\u01b0\u1edbc",
	  "lat": 11.7511894,
	  "lon": 106.7234639,
	  "order": 1,
	  "status": true
	}
  },
  {
	"model": "location.city",
	"pk": "bef66a70-fd19-11e8-8a07-005056c00008",
	"fields": {
	  "name": "T\u1ec9nh T\u00e2y Ninh",
	  "lat": 11.3494766,
	  "lon": 106.0640179,
	  "order": 1,
	  "status": true
	}
  },
  {
	"model": "location.city",
	"pk": "c204b14f-fd18-11e8-a6d8-005056c00008",
	"fields": {
	  "name": "T\u1ec9nh H\u01b0ng Y\u00ean",
	  "lat": 20.8525711,
	  "lon": 106.0169971,
	  "order": 1,
	  "status": true
	}
  },
  {
	"model": "location.city",
	"pk": "c3baa940-fd19-11e8-a2b3-005056c00008",
	"fields": {
	  "name": "T\u1ec9nh B\u00ecnh D\u01b0\u01a1ng",
	  "lat": 11.3254024,
	  "lon": 106.477017,
	  "order": 1,
	  "status": true
	}
  },
  {
	"model": "location.city",
	"pk": "c8cfc730-fd19-11e8-adaf-005056c00008",
	"fields": {
	  "name": "T\u1ec9nh \u0110\u1ed3ng Nai",
	  "lat": 11.0686305,
	  "lon": 107.1675976,
	  "order": 1,
	  "status": true
	}
  },
  {
	"model": "location.city",
	"pk": "c9266821-fd18-11e8-8933-005056c00008",
	"fields": {
	  "name": "T\u1ec9nh Th\u00e1i B\u00ecnh",
	  "lat": 20.5386936,
	  "lon": 106.3934777,
	  "order": 1,
	  "status": true
	}
  },
  {
	"model": "location.city",
	"pk": "d58d0a00-fd19-11e8-8b65-005056c00008",
	"fields": {
	  "name": "T\u1ec9nh B\u00e0 R\u1ecba  V\u0169ng T\u00e0u",
	  "lat": 10.5417397,
	  "lon": 107.2429976,
	  "order": 1,
	  "status": true
	}
  },
  {
	"model": "location.city",
	"pk": "d6d70ba1-fd18-11e8-adc1-005056c00008",
	"fields": {
	  "name": "T\u1ec9nh H\u00e0 Nam",
	  "lat": 20.5835196,
	  "lon": 105.92299,
	  "order": 1,
	  "status": true
	}
  },
  {
	"model": "location.city",
	"pk": "da8ec700-fd19-11e8-8441-005056c00008",
	"fields": {
	  "name": "Th\u00e0nh ph\u1ed1 H\u1ed3 Ch\u00ed Minh",
	  "lat": 10.8230989,
	  "lon": 106.6296638,
	  "order": 1,
	  "status": true
	}
  },
  {
	"model": "location.city",
	"pk": "dcb56d00-fd18-11e8-9621-005056c00008",
	"fields": {
	  "name": "T\u1ec9nh Nam \u0110\u1ecbnh",
	  "lat": 20.2791804,
	  "lon": 106.2051484,
	  "order": 1,
	  "status": true
	}
  },
  {
	"model": "location.city",
	"pk": "e83cc7de-fd18-11e8-94e6-005056c00008",
	"fields": {
	  "name": "T\u1ec9nh Ninh B\u00ecnh",
	  "lat": 20.2129969,
	  "lon": 105.92299,
	  "order": 1,
	  "status": true
	}
  },
  {
	"model": "location.city",
	"pk": "e8c5754f-fd17-11e8-a70b-005056c00008",
	"fields": {
	  "name": "Th\u00e0nh ph\u1ed1 H\u00e0 N\u1ed9i",
	  "lat": 21.0277644,
	  "lon": 105.8341598,
	  "order": 1,
	  "status": true
	}
  },
  {
	"model": "location.city",
	"pk": "efc7ab4f-fd19-11e8-863a-005056c00008",
	"fields": {
	  "name": "T\u1ec9nh Long An",
	  "lat": 10.695572,
	  "lon": 106.2431205,
	  "order": 1,
	  "status": true
	}
  },
  {
	"model": "location.city",
	"pk": "f01d3acf-fd18-11e8-b5b2-005056c00008",
	"fields": {
	  "name": "T\u1ec9nh Thanh H\u00f3a",
	  "lat": 20.1291279,
	  "lon": 105.3131185,
	  "order": 1,
	  "status": true
	}
  },
  {
	"model": "location.city",
	"pk": "fb6ec330-fd19-11e8-9fe4-005056c00008",
	"fields": {
	  "name": "T\u1ec9nh Ti\u1ec1n Giang",
	  "lat": 10.4493324,
	  "lon": 106.3420504,
	  "order": 1,
	  "status": true
	}
  },
  {
	"model": "location.district",
	"pk": "0096a5cf-fd1a-11e8-a5a0-005056c00008",
	"fields": {
	  "name": "Huy\u1ec7n Ch\u00e2u Th\u00e0nh",
	  "city": "fb6ec330-fd19-11e8-9fe4-005056c00008",
	  "lat": 10.4009358,
	  "lon": 106.22868,
	  "order": 1,
	  "status": true
	}
  },
  {
	"model": "location.district",
	"pk": "00ac3b8f-fd18-11e8-acca-005056c00008",
	"fields": {
	  "name": "Huy\u1ec7n Ch\u01b0\u01a1ng M\u1ef9",
	  "city": "e8c5754f-fd17-11e8-a70b-005056c00008",
	  "lat": 20.8746466,
	  "lon": 105.6712465,
	  "order": 1,
	  "status": true
	}
  },
  {
	"model": "location.district",
	"pk": "013dd7c0-fd19-11e8-a254-005056c00008",
	"fields": {
	  "name": "Huy\u1ec7n Th\u01b0\u1eddng Xu\u00e2n",
	  "city": "f01d3acf-fd18-11e8-b5b2-005056c00008",
	  "lat": 19.9012787,
	  "lon": 105.2662931,
	  "order": 1,
	  "status": true
	}
  },
  {
	"model": "location.district",
	"pk": "01ce145e-fd1a-11e8-800f-005056c00008",
	"fields": {
	  "name": "Huy\u1ec7n Ch\u1ee3 G\u1ea1o",
	  "city": "fb6ec330-fd19-11e8-9fe4-005056c00008",
	  "lat": 10.3793903,
	  "lon": 106.4541903,
	  "order": 1,
	  "status": true
	}
  },
  {
	"model": "location.district",
	"pk": "0246b1b0-fd18-11e8-800f-005056c00008",
	"fields": {
	  "name": "Huy\u1ec7n Thanh Oai",
	  "city": "e8c5754f-fd17-11e8-a70b-005056c00008",
	  "lat": 20.8532165,
	  "lon": 105.7688513,
	  "order": 1,
	  "status": true
	}
  },
  {
	"model": "location.district",
	"pk": "024ef99e-fd19-11e8-a407-005056c00008",
	"fields": {
	  "name": "Huy\u1ec7n Tri\u1ec7u S\u01a1n",
	  "city": "f01d3acf-fd18-11e8-b5b2-005056c00008",
	  "lat": 19.8512387,
	  "lon": 105.5708865,
	  "order": 1,
	  "status": true
	}
  },
  {
	"model": "location.district",
	"pk": "02d1a1ae-fd1a-11e8-94cd-005056c00008",
	"fields": {
	  "name": "Huy\u1ec7n G\u00f2 C\u00f4ng T\u00e2y",
	  "city": "fb6ec330-fd19-11e8-9fe4-005056c00008",
	  "lat": 10.3378629,
	  "lon": 106.6055534,
	  "order": 1,
	  "status": true
	}
  },
  {
	"model": "location.district",
	"pk": "0397e9cf-fd18-11e8-bbc1-005056c00008",
	"fields": {
	  "name": "Huy\u1ec7n Th\u01b0\u1eddng T\u00edn",
	  "city": "e8c5754f-fd17-11e8-a70b-005056c00008",
	  "lat": 20.8055441,
	  "lon": 105.8838579,
	  "order": 1,
	  "status": true
	}
  },
  {
	"model": "location.district",
	"pk": "03a879ae-fd1a-11e8-9ab9-005056c00008",
	"fields": {
	  "name": "Huy\u1ec7n G\u00f2 C\u00f4ng \u0110\u00f4ng",
	  "city": "fb6ec330-fd19-11e8-9fe4-005056c00008",
	  "lat": 10.3737254,
	  "lon": 106.7470536,
	  "order": 1,
	  "status": true
	}
  },
  {
	"model": "location.district",
	"pk": "040c3a00-fd19-11e8-aead-005056c00008",
	"fields": {
	  "name": "Huy\u1ec7n Thi\u1ec7u H\u00f3a",
	  "city": "f01d3acf-fd18-11e8-b5b2-005056c00008",
	  "lat": 19.889182,
	  "lon": 105.6647142,
	  "order": 1,
	  "status": true
	}
  },
  {
	"model": "location.district",
	"pk": "042e2470-fd1a-11e8-af79-005056c00008",
	"fields": {
	  "name": "Huy\u1ec7n T\u00e2n Ph\u00fa \u0110\u00f4ng",
	  "city": "fb6ec330-fd19-11e8-9fe4-005056c00008",
	  "lat": 10.2462427,
	  "lon": 106.6998767,
	  "order": 1,
	  "status": true
	}
  },
  {
	"model": "location.district",
	"pk": "0489b1f0-fd1a-11e8-b190-005056c00008",
	"fields": {
	  "name": "Th\u00e0nh ph\u1ed1 B\u1ebfn Tre",
	  "city": "047f78c0-fd1a-11e8-a7c9-005056c00008",
	  "lat": 10.241361,
	  "lon": 106.3762601,
	  "order": 1,
	  "status": true
	}
  },
  {
	"model": "location.district",
	"pk": "050387c0-fd18-11e8-ad3e-005056c00008",
	"fields": {
	  "name": "Huy\u1ec7n Ph\u00fa Xuy\u00ean",
	  "city": "e8c5754f-fd17-11e8-a70b-005056c00008",
	  "lat": 20.7280728,
	  "lon": 105.9029374,
	  "order": 1,
	  "status": true
	}
  },
  {
	"model": "location.district",
	"pk": "05529cae-fd19-11e8-8bb9-005056c00008",
	"fields": {
	  "name": "Huy\u1ec7n Ho\u1eb1ng H\u00f3a",
	  "city": "f01d3acf-fd18-11e8-b5b2-005056c00008",
	  "lat": 19.8216851,
	  "lon": 105.8994956,
	  "order": 1,
	  "status": true
	}
  },
  {
	"model": "location.district",
	"pk": "055d2e8f-fd1a-11e8-8dd3-005056c00008",
	"fields": {
	  "name": "Huy\u1ec7n Ch\u00e2u Th\u00e0nh",
	  "city": "047f78c0-fd1a-11e8-a7c9-005056c00008",
	  "lat": 10.3067813,
	  "lon": 106.3699271,
	  "order": 1,
	  "status": true
	}
  },
  {
	"model": "location.district",
	"pk": "067714f0-fd18-11e8-b65f-005056c00008",
	"fields": {
	  "name": "Huy\u1ec7n \u1ee8ng H\u00f2a",
	  "city": "e8c5754f-fd17-11e8-a70b-005056c00008",
	  "lat": 20.729614,
	  "lon": 105.7782061,
	  "order": 1,
	  "status": true
	}
  },
  {
	"model": "location.district",
	"pk": "067ad38f-fd1a-11e8-a313-005056c00008",
	"fields": {
	  "name": "Huy\u1ec7n Ch\u1ee3 L\u00e1ch",
	  "city": "047f78c0-fd1a-11e8-a7c9-005056c00008",
	  "lat": 10.241094,
	  "lon": 106.1698563,
	  "order": 1,
	  "status": true
	}
  },
  {
	"model": "location.district",
	"pk": "0707f861-fd1a-11e8-b531-005056c00008",
	"fields": {
	  "name": "Huy\u1ec7n M\u1ecf C\u00e0y Nam",
	  "city": "047f78c0-fd1a-11e8-a7c9-005056c00008",
	  "lat": 10.0468396,
	  "lon": 106.3699271,
	  "order": 1,
	  "status": true
	}
  },
  {
	"model": "location.district",
	"pk": "07637b4f-fd19-11e8-84b2-005056c00008",
	"fields": {
	  "name": "Huy\u1ec7n H\u1eadu L\u1ed9c",
	  "city": "f01d3acf-fd18-11e8-b5b2-005056c00008",
	  "lat": 19.9268879,
	  "lon": 105.8877494,
	  "order": 1,
	  "status": true
	}
  },
  {
	"model": "location.district",
	"pk": "07f46621-fd18-11e8-b3ee-005056c00008",
	"fields": {
	  "name": "Huy\u1ec7n M\u1ef9 \u0110\u1ee9c",
	  "city": "e8c5754f-fd17-11e8-a70b-005056c00008",
	  "lat": 20.725768,
	  "lon": 105.7157513,
	  "order": 1,
	  "status": true
	}
  },
  {
	"model": "location.district",
	"pk": "080df6b0-fd1a-11e8-a1f2-005056c00008",
	"fields": {
	  "name": "Huy\u1ec7n Gi\u1ed3ng Tr\u00f4m",
	  "city": "047f78c0-fd1a-11e8-a7c9-005056c00008",
	  "lat": 10.1718844,
	  "lon": 106.4641459,
	  "order": 1,
	  "status": true
	}
  },
  {
	"model": "location.district",
	"pk": "08beec9e-fd19-11e8-9f60-005056c00008",
	"fields": {
	  "name": "Huy\u1ec7n Nga S\u01a1n",
	  "city": "f01d3acf-fd18-11e8-b5b2-005056c00008",
	  "lat": 19.9981878,
	  "lon": 105.993491,
	  "order": 1,
	  "status": true
	}
  },
  {
	"model": "location.district",
	"pk": "091df200-fd18-11e8-8c83-005056c00008",
	"fields": {
	  "name": "Th\u00e0nh ph\u1ed1 H\u00e0 Giang",
	  "city": "091147cf-fd18-11e8-93f0-005056c00008",
	  "lat": 22.8025588,
	  "lon": 104.9784494,
	  "order": 1,
	  "status": true
	}
  },
  {
	"model": "location.district",
	"pk": "093b2c0f-fd1a-11e8-bd5f-005056c00008",
	"fields": {
	  "name": "Huy\u1ec7n B\u00ecnh \u0110\u1ea1i",
	  "city": "047f78c0-fd1a-11e8-a7c9-005056c00008",
	  "lat": 10.1596899,
	  "lon": 106.6998767,
	  "order": 1,
	  "status": true
	}
  },
  {
	"model": "location.district",
	"pk": "099fa521-fd18-11e8-b9f4-005056c00008",
	"fields": {
	  "name": "Huy\u1ec7n \u0110\u1ed3ng V\u0103n",
	  "city": "091147cf-fd18-11e8-93f0-005056c00008",
	  "lat": 23.2246718,
	  "lon": 105.2428853,
	  "order": 1,
	  "status": true
	}
  },
  {
	"model": "location.district",
	"pk": "0a052840-fd19-11e8-9140-005056c00008",
	"fields": {
	  "name": "Huy\u1ec7n Nh\u01b0 Xu\u00e2n",
	  "city": "f01d3acf-fd18-11e8-b5b2-005056c00008",
	  "lat": 19.6149135,
	  "lon": 105.3599568,
	  "order": 1,
	  "status": true
	}
  },
  {
	"model": "location.district",
	"pk": "0a3d32c0-fd1a-11e8-b584-005056c00008",
	"fields": {
	  "name": "Huy\u1ec7n Ba Tri",
	  "city": "047f78c0-fd1a-11e8-a7c9-005056c00008",
	  "lat": 10.0417849,
	  "lon": 106.5936741,
	  "order": 1,
	  "status": true
	}
  },
  {
	"model": "location.district",
	"pk": "0aa81470-fd18-11e8-ba2a-005056c00008",
	"fields": {
	  "name": "Huy\u1ec7n M\u00e8o V\u1ea1c",
	  "city": "091147cf-fd18-11e8-93f0-005056c00008",
	  "lat": 23.1341053,
	  "lon": 105.4536718,
	  "order": 1,
	  "status": true
	}
  },
  {
	"model": "location.district",
	"pk": "0ad76c5e-fd19-11e8-bac0-005056c00008",
	"fields": {
	  "name": "Huy\u1ec7n Nh\u01b0 Thanh",
	  "city": "f01d3acf-fd18-11e8-b5b2-005056c00008",
	  "lat": 19.5733122,
	  "lon": 105.5708865,
	  "order": 1,
	  "status": true
	}
  },
  {
	"model": "location.district",
	"pk": "0b7b09f0-fd1a-11e8-b2d2-005056c00008",
	"fields": {
	  "name": "Huy\u1ec7n Th\u1ea1nh Ph\u00fa",
	  "city": "047f78c0-fd1a-11e8-a7c9-005056c00008",
	  "lat": 9.9077234,
	  "lon": 106.5584071,
	  "order": 1,
	  "status": true
	}
  },
  {
	"model": "location.district",
	"pk": "0ba6e6cf-fd18-11e8-bad2-005056c00008",
	"fields": {
	  "name": "Huy\u1ec7n Y\u00ean Minh",
	  "city": "091147cf-fd18-11e8-93f0-005056c00008",
	  "lat": 23.0434955,
	  "lon": 105.1960795,
	  "order": 1,
	  "status": true
	}
  },
  {
	"model": "location.district",
	"pk": "0bbdfbcf-fd19-11e8-bf31-005056c00008",
	"fields": {
	  "name": "Huy\u1ec7n N\u00f4ng C\u1ed1ng",
	  "city": "f01d3acf-fd18-11e8-b5b2-005056c00008",
	  "lat": 19.6113284,
	  "lon": 105.6647142,
	  "order": 1,
	  "status": true
	}
  },
  {
	"model": "location.district",
	"pk": "0cb326b0-fd18-11e8-9da2-005056c00008",
	"fields": {
	  "name": "Huy\u1ec7n Qu\u1ea3n B\u1ea1",
	  "city": "091147cf-fd18-11e8-93f0-005056c00008",
	  "lat": 23.087186,
	  "lon": 104.9856176,
	  "order": 1,
	  "status": true
	}
  },
  {
	"model": "location.district",
	"pk": "0cd3bc21-fd1a-11e8-a0d2-005056c00008",
	"fields": {
	  "name": "Huy\u1ec7n M\u1ecf C\u00e0y B\u1eafc",
	  "city": "047f78c0-fd1a-11e8-a7c9-005056c00008",
	  "lat": 10.1700758,
	  "lon": 106.287521,
	  "order": 1,
	  "status": true
	}
  },
  {
	"model": "location.district",
	"pk": "0d6538a1-fd18-11e8-9ac3-005056c00008",
	"fields": {
	  "name": "Huy\u1ec7n V\u1ecb Xuy\u00ean",
	  "city": "091147cf-fd18-11e8-93f0-005056c00008",
	  "lat": 22.7241336,
	  "lon": 104.8921668,
	  "order": 1,
	  "status": true
	}
  },
  {
	"model": "location.district",
	"pk": "0d7c4da1-fd19-11e8-ab96-005056c00008",
	"fields": {
	  "name": "Huy\u1ec7n \u0110\u00f4ng S\u01a1n",
	  "city": "f01d3acf-fd18-11e8-b5b2-005056c00008",
	  "lat": 19.8049755,
	  "lon": 105.6999122,
	  "order": 1,
	  "status": true
	}
  },
  {
	"model": "location.district",
	"pk": "0d95104f-fd1a-11e8-ac22-005056c00008",
	"fields": {
	  "name": "Th\u00e0nh ph\u1ed1 Tr\u00e0 Vinh",
	  "city": "0d89778f-fd1a-11e8-b0ea-005056c00008",
	  "lat": 9.9513316,
	  "lon": 106.3346061,
	  "order": 1,
	  "status": true
	}
  },
  {
	"model": "location.district",
	"pk": "0e1a6cf0-fd1a-11e8-8a0d-005056c00008",
	"fields": {
	  "name": "Huy\u1ec7n C\u00e0ng Long",
	  "city": "0d89778f-fd1a-11e8-b0ea-005056c00008",
	  "lat": 9.9674087,
	  "lon": 106.22868,
	  "order": 1,
	  "status": true
	}
  },
  {
	"model": "location.district",
	"pk": "0e485030-fd19-11e8-95b1-005056c00008",
	"fields": {
	  "name": "Huy\u1ec7n Qu\u1ea3ng X\u01b0\u01a1ng",
	  "city": "f01d3acf-fd18-11e8-b5b2-005056c00008",
	  "lat": 19.6913377,
	  "lon": 105.8055471,
	  "order": 1,
	  "status": true
	}
  },
  {
	"model": "location.district",
	"pk": "0e8af3f0-fd18-11e8-8e04-005056c00008",
	"fields": {
	  "name": "Huy\u1ec7n B\u1eafc M\u00ea",
	  "city": "091147cf-fd18-11e8-93f0-005056c00008",
	  "lat": 22.7811484,
	  "lon": 105.2662931,
	  "order": 1,
	  "status": true
	}
  },
  {
	"model": "location.district",
	"pk": "0f232a5e-fd1a-11e8-a811-005056c00008",
	"fields": {
	  "name": "Huy\u1ec7n C\u1ea7u K\u00e8",
	  "city": "0d89778f-fd1a-11e8-b0ea-005056c00008",
	  "lat": 9.8878863,
	  "lon": 106.0875326,
	  "order": 1,
	  "status": true
	}
  },
  {
	"model": "location.district",
	"pk": "0f45df80-fd18-11e8-928e-005056c00008",
	"fields": {
	  "name": "Huy\u1ec7n Ho\u00e0ng Su Ph\u00ec",
	  "city": "091147cf-fd18-11e8-93f0-005056c00008",
	  "lat": 22.7417169,
	  "lon": 104.705431,
	  "order": 1,
	  "status": true
	}
  },
  {
	"model": "location.district",
	"pk": "0fadb71e-fd1a-11e8-8e68-005056c00008",
	"fields": {
	  "name": "Huy\u1ec7n Ti\u1ec3u C\u1ea7n",
	  "city": "0d89778f-fd1a-11e8-b0ea-005056c00008",
	  "lat": 9.7969156,
	  "lon": 106.1816196,
	  "order": 1,
	  "status": true
	}
  },
  {
	"model": "location.district",
	"pk": "0fc5c870-fd19-11e8-9699-005056c00008",
	"fields": {
	  "name": "Huy\u1ec7n T\u0129nh Gia",
	  "city": "f01d3acf-fd18-11e8-b5b2-005056c00008",
	  "lat": 19.43838,
	  "lon": 105.7745131,
	  "order": 1,
	  "status": true
	}
  },
  {
	"model": "location.district",
	"pk": "103eac80-fd1a-11e8-b1a8-005056c00008",
	"fields": {
	  "name": "Huy\u1ec7n Ch\u00e2u Th\u00e0nh",
	  "city": "0d89778f-fd1a-11e8-b0ea-005056c00008",
	  "lat": 9.8331585,
	  "lon": 106.3228338,
	  "order": 1,
	  "status": true
	}
  },
  {
	"model": "location.district",
	"pk": "10959100-fd18-11e8-8fd6-005056c00008",
	"fields": {
	  "name": "Huy\u1ec7n X\u00edn M\u1ea7n",
	  "city": "091147cf-fd18-11e8-93f0-005056c00008",
	  "lat": 22.6659156,
	  "lon": 104.5189214,
	  "order": 1,
	  "status": true
	}
  },
  {
	"model": "location.district",
	"pk": "10f74e21-fd1a-11e8-b77d-005056c00008",
	"fields": {
	  "name": "Huy\u1ec7n C\u1ea7u Ngang",
	  "city": "0d89778f-fd1a-11e8-b0ea-005056c00008",
	  "lat": 9.7830517,
	  "lon": 106.4641459,
	  "order": 1,
	  "status": true
	}
  },
  {
	"model": "location.district",
	"pk": "116dfa30-fd19-11e8-b9a6-005056c00008",
	"fields": {
	  "name": "Th\u00e0nh ph\u1ed1 Vinh",
	  "city": "116128f0-fd19-11e8-a899-005056c00008",
	  "lat": 18.6795848,
	  "lon": 105.6813333,
	  "order": 1,
	  "status": true
	}
  },
  {
	"model": "location.district",
	"pk": "1180db61-fd18-11e8-bf70-005056c00008",
	"fields": {
	  "name": "Huy\u1ec7n B\u1eafc Quang",
	  "city": "091147cf-fd18-11e8-93f0-005056c00008",
	  "lat": 22.4450248,
	  "lon": 104.8921668,
	  "order": 1,
	  "status": true
	}
  },
  {
	"model": "location.district",
	"pk": "11a149c0-fd1a-11e8-9c74-005056c00008",
	"fields": {
	  "name": "Huy\u1ec7n Tr\u00e0 C\u00fa",
	  "city": "0d89778f-fd1a-11e8-b0ea-005056c00008",
	  "lat": 9.7060851,
	  "lon": 106.2757514,
	  "order": 1,
	  "status": true
	}
  },
  {
	"model": "location.district",
	"pk": "12747840-fd1a-11e8-9a1d-005056c00008",
	"fields": {
	  "name": "Huy\u1ec7n Duy\u00ean H\u1ea3i",
	  "city": "0d89778f-fd1a-11e8-b0ea-005056c00008",
	  "lat": 9.6311842,
	  "lon": 106.4877072,
	  "order": 1,
	  "status": true
	}
  },
  {
	"model": "location.district",
	"pk": "12bc689e-fd18-11e8-b8de-005056c00008",
	"fields": {
	  "name": "Huy\u1ec7n Quang B\u00ecnh",
	  "city": "091147cf-fd18-11e8-93f0-005056c00008",
	  "lat": 22.4624387,
	  "lon": 104.705431,
	  "order": 1,
	  "status": true
	}
  },
  {
	"model": "location.district",
	"pk": "12c2dbcf-fd19-11e8-b3ca-005056c00008",
	"fields": {
	  "name": "Th\u1ecb x\u00e3 C\u1eeda L\u00f2",
	  "city": "116128f0-fd19-11e8-a899-005056c00008",
	  "lat": 18.7916127,
	  "lon": 105.7175138,
	  "order": 1,
	  "status": true
	}
  },
  {
	"model": "location.district",
	"pk": "12cc5c40-fd1a-11e8-903b-005056c00008",
	"fields": {
	  "name": "Th\u1ecb x\u00e3 Duy\u00ean H\u1ea3i",
	  "city": "0d89778f-fd1a-11e8-b0ea-005056c00008",
	  "lat": 9.6311842,
	  "lon": 106.4877072,
	  "order": 1,
	  "status": true
	}
  },
  {
	"model": "location.district",
	"pk": "133cc6c0-fd19-11e8-8d75-005056c00008",
	"fields": {
	  "name": "Th\u1ecb x\u00e3 Th\u00e1i Ho\u00e0",
	  "city": "116128f0-fd19-11e8-a899-005056c00008",
	  "lat": 19.2931124,
	  "lon": 105.4653897,
	  "order": 1,
	  "status": true
	}
  },
  {
	"model": "location.district",
	"pk": "134a17c0-fd1a-11e8-834d-005056c00008",
	"fields": {
	  "name": "Th\u00e0nh ph\u1ed1 V\u0129nh Long",
	  "city": "133fde8f-fd1a-11e8-a36a-005056c00008",
	  "lat": 10.2448442,
	  "lon": 105.958865,
	  "order": 1,
	  "status": true
	}
  },
  {
	"model": "location.district",
	"pk": "13c0440f-fd18-11e8-a111-005056c00008",
	"fields": {
	  "name": "Th\u00e0nh ph\u1ed1 Cao B\u1eb1ng",
	  "city": "13a82830-fd18-11e8-b076-005056c00008",
	  "lat": 22.6655648,
	  "lon": 106.2606733,
	  "order": 1,
	  "status": true
	}
  },
  {
	"model": "location.district",
	"pk": "13e5d800-fd19-11e8-be87-005056c00008",
	"fields": {
	  "name": "Huy\u1ec7n Qu\u1ebf Phong",
	  "city": "116128f0-fd19-11e8-a899-005056c00008",
	  "lat": 19.6862686,
	  "lon": 104.9563176,
	  "order": 1,
	  "status": true
	}
  },
  {
	"model": "location.district",
	"pk": "13eb60cf-fd1a-11e8-b19f-005056c00008",
	"fields": {
	  "name": "Huy\u1ec7n Long H\u1ed3",
	  "city": "133fde8f-fd1a-11e8-a36a-005056c00008",
	  "lat": 10.1980682,
	  "lon": 105.9464874,
	  "order": 1,
	  "status": true
	}
  },
  {
	"model": "location.district",
	"pk": "144ad0cf-fd18-11e8-b693-005056c00008",
	"fields": {
	  "name": "Huy\u1ec7n B\u1ea3o L\u00e2m",
	  "city": "13a82830-fd18-11e8-b076-005056c00008",
	  "lat": 22.8378995,
	  "lon": 105.4948965,
	  "order": 1,
	  "status": true
	}
  },
  {
	"model": "location.district",
	"pk": "14a64c5e-fd1a-11e8-81bf-005056c00008",
	"fields": {
	  "name": "Huy\u1ec7n Mang Th\u00edt",
	  "city": "133fde8f-fd1a-11e8-a36a-005056c00008",
	  "lat": 10.18076,
	  "lon": 106.0757749,
	  "order": 1,
	  "status": true
	}
  },
  {
	"model": "location.district",
	"pk": "14bcd70f-fd19-11e8-a331-005056c00008",
	"fields": {
	  "name": "Huy\u1ec7n Qu\u1ef3 Ch\u00e2u",
	  "city": "116128f0-fd19-11e8-a899-005056c00008",
	  "lat": 19.5463056,
	  "lon": 105.0791228,
	  "order": 1,
	  "status": true
	}
  },
  {
	"model": "location.district",
	"pk": "15076a0f-fd18-11e8-9e33-005056c00008",
	"fields": {
	  "name": "Huy\u1ec7n B\u1ea3o L\u1ea1c",
	  "city": "13a82830-fd18-11e8-b076-005056c00008",
	  "lat": 22.8786248,
	  "lon": 105.6881788,
	  "order": 1,
	  "status": true
	}
  },
  {
	"model": "location.district",
	"pk": "1539d9cf-fd1a-11e8-9f72-005056c00008",
	"fields": {
	  "name": "Huy\u1ec7n  V\u0169ng Li\u00eam",
	  "city": "133fde8f-fd1a-11e8-a36a-005056c00008",
	  "lat": 10.058632,
	  "lon": 106.1345705,
	  "order": 1,
	  "status": true
	}
  },
  {
	"model": "location.district",
	"pk": "1551eb1e-fd19-11e8-92e7-005056c00008",
	"fields": {
	  "name": "Huy\u1ec7n K\u1ef3 S\u01a1n",
	  "city": "116128f0-fd19-11e8-a899-005056c00008",
	  "lat": 19.38547,
	  "lon": 104.1827912,
	  "order": 1,
	  "status": true
	}
  },
  {
	"model": "location.district",
	"pk": "15f68500-fd18-11e8-962c-005056c00008",
	"fields": {
	  "name": "Huy\u1ec7n Th\u00f4ng N\u00f4ng",
	  "city": "13a82830-fd18-11e8-b076-005056c00008",
	  "lat": 22.8439088,
	  "lon": 105.9520986,
	  "order": 1,
	  "status": true
	}
  },
  {
	"model": "location.district",
	"pk": "1644ba1e-fd1a-11e8-95ab-005056c00008",
	"fields": {
	  "name": "Huy\u1ec7n Tam B\u00ecnh",
	  "city": "133fde8f-fd1a-11e8-a36a-005056c00008",
	  "lat": 10.0679356,
	  "lon": 105.9464874,
	  "order": 1,
	  "status": true
	}
  },
  {
	"model": "location.district",
	"pk": "16816a70-fd19-11e8-96f5-005056c00008",
	"fields": {
	  "name": "Huy\u1ec7n T\u01b0\u01a1ng D\u01b0\u01a1ng",
	  "city": "116128f0-fd19-11e8-a899-005056c00008",
	  "lat": 19.2640131,
	  "lon": 104.5655273,
	  "order": 1,
	  "status": true
	}
  },
  {
	"model": "location.district",
	"pk": "1688b2e1-fd18-11e8-8c58-005056c00008",
	"fields": {
	  "name": "Huy\u1ec7n H\u00e0 Qu\u1ea3ng",
	  "city": "13a82830-fd18-11e8-b076-005056c00008",
	  "lat": 22.9025402,
	  "lon": 106.1345705,
	  "order": 1,
	  "status": true
	}
  },
  {
	"model": "location.district",
	"pk": "17155091-fd1a-11e8-8719-005056c00008",
	"fields": {
	  "name": "Th\u1ecb x\u00e3 B\u00ecnh Minh",
	  "city": "133fde8f-fd1a-11e8-a36a-005056c00008",
	  "lat": 10.029192,
	  "lon": 105.8525154,
	  "order": 1,
	  "status": true
	}
  },
  {
	"model": "location.district",
	"pk": "1761b84f-fd19-11e8-8d9c-005056c00008",
	"fields": {
	  "name": "Huy\u1ec7n Ngh\u0129a \u0110\u00e0n",
	  "city": "116128f0-fd19-11e8-a899-005056c00008",
	  "lat": 19.4003352,
	  "lon": 105.4302383,
	  "order": 1,
	  "status": true
	}
  },
  {
	"model": "location.district",
	"pk": "177bec80-fd18-11e8-a456-005056c00008",
	"fields": {
	  "name": "Huy\u1ec7n Tr\u00e0 L\u0129nh",
	  "city": "13a82830-fd18-11e8-b076-005056c00008",
	  "lat": 22.7903474,
	  "lon": 106.3228338,
	  "order": 1,
	  "status": true
	}
  },
  {
	"model": "location.district",
	"pk": "17852961-fd1a-11e8-ba72-005056c00008",
	"fields": {
	  "name": "Huy\u1ec7n Tr\u00e0 \u00d4n",
	  "city": "133fde8f-fd1a-11e8-a36a-005056c00008",
	  "lat": 9.9789961,
	  "lon": 105.993491,
	  "order": 1,
	  "status": true
	}
  },
  {
	"model": "location.district",
	"pk": "18025a8f-fd18-11e8-804c-005056c00008",
	"fields": {
	  "name": "Huy\u1ec7n Tr\u00f9ng Kh\u00e1nh",
	  "city": "13a82830-fd18-11e8-b076-005056c00008",
	  "lat": 22.8323826,
	  "lon": 106.5819789,
	  "order": 1,
	  "status": true
	}
  },
  {
	"model": "location.district",
	"pk": "183da3f0-fd1a-11e8-9b86-005056c00008",
	"fields": {
	  "name": "Huy\u1ec7n B\u00ecnh T\u00e2n",
	  "city": "133fde8f-fd1a-11e8-a36a-005056c00008",
	  "lat": 10.1218894,
	  "lon": 105.7728863,
	  "order": 1,
	  "status": true
	}
  },
  {
	"model": "location.district",
	"pk": "187b8cc0-fd19-11e8-aa2e-005056c00008",
	"fields": {
	  "name": "Huy\u1ec7n Qu\u1ef3 H\u1ee3p",
	  "city": "116128f0-fd19-11e8-a899-005056c00008",
	  "lat": 19.3528917,
	  "lon": 105.1726816,
	  "order": 1,
	  "status": true
	}
  },
  {
	"model": "location.district",
	"pk": "18c91b0f-fd1a-11e8-ac02-005056c00008",
	"fields": {
	  "name": "Th\u00e0nh ph\u1ed1 Cao L\u00e3nh",
	  "city": "18c2b270-fd1a-11e8-bb85-005056c00008",
	  "lat": 10.4549723,
	  "lon": 105.6340352,
	  "order": 1,
	  "status": true
	}
  },
  {
	"model": "location.district",
	"pk": "190e9a6e-fd18-11e8-ab56-005056c00008",
	"fields": {
	  "name": "Huy\u1ec7n H\u1ea1 Lang",
	  "city": "13a82830-fd18-11e8-b076-005056c00008",
	  "lat": 22.7042438,
	  "lon": 106.6998767,
	  "order": 1,
	  "status": true
	}
  },
  {
	"model": "location.district",
	"pk": "1974010f-fd1a-11e8-b6e2-005056c00008",
	"fields": {
	  "name": "Th\u00e0nh ph\u1ed1 Sa \u0110\u00e9c",
	  "city": "18c2b270-fd1a-11e8-bb85-005056c00008",
	  "lat": 10.3057678,
	  "lon": 105.7468535,
	  "order": 1,
	  "status": true
	}
  },
  {
	"model": "location.district",
	"pk": "19ba43c0-fd18-11e8-a8ac-005056c00008",
	"fields": {
	  "name": "Huy\u1ec7n Qu\u1ea3ng Uy\u00ean",
	  "city": "13a82830-fd18-11e8-b076-005056c00008",
	  "lat": 22.68299,
	  "lon": 106.4641459,
	  "order": 1,
	  "status": true
	}
  },
  {
	"model": "location.district",
	"pk": "19f7d70f-fd1a-11e8-9a33-005056c00008",
	"fields": {
	  "name": "Th\u1ecb x\u00e3 H\u1ed3ng Ng\u1ef1",
	  "city": "18c2b270-fd1a-11e8-bb85-005056c00008",
	  "lat": 10.8255238,
	  "lon": 105.3950939,
	  "order": 1,
	  "status": true
	}
  },
  {
	"model": "location.district",
	"pk": "1a05d640-fd19-11e8-a908-005056c00008",
	"fields": {
	  "name": "Huy\u1ec7n Qu\u1ef3nh L\u01b0u",
	  "city": "116128f0-fd19-11e8-a899-005056c00008",
	  "lat": 19.2200256,
	  "lon": 105.6412527,
	  "order": 1,
	  "status": true
	}
  },
  {
	"model": "location.district",
	"pk": "1a5b53cf-fd1a-11e8-bfb5-005056c00008",
	"fields": {
	  "name": "Huy\u1ec7n T\u00e2n H\u1ed3ng",
	  "city": "18c2b270-fd1a-11e8-bb85-005056c00008",
	  "lat": 10.876115,
	  "lon": 105.4771084,
	  "order": 1,
	  "status": true
	}
  },
  {
	"model": "location.district",
	"pk": "1a96c111-fd18-11e8-94d4-005056c00008",
	"fields": {
	  "name": "Huy\u1ec7n Ph\u1ee5c Ho\u00e0",
	  "city": "13a82830-fd18-11e8-b076-005056c00008",
	  "lat": 22.5392684,
	  "lon": 106.5112712,
	  "order": 1,
	  "status": true
	}
  },
  {
	"model": "location.district",
	"pk": "1abbea61-fd1a-11e8-a181-005056c00008",
	"fields": {
	  "name": "Huy\u1ec7n H\u1ed3ng Ng\u1ef1",
	  "city": "18c2b270-fd1a-11e8-bb85-005056c00008",
	  "lat": 10.7979866,
	  "lon": 105.2897042,
	  "order": 1,
	  "status": true
	}
  },
  {
	"model": "location.district",
	"pk": "1b1c44c0-fd18-11e8-9a6f-005056c00008",
	"fields": {
	  "name": "Huy\u1ec7n Ho\u00e0 An",
	  "city": "13a82830-fd18-11e8-b076-005056c00008",
	  "lat": 22.7538704,
	  "lon": 106.22868,
	  "order": 1,
	  "status": true
	}
  },
  {
	"model": "location.district",
	"pk": "1b40aac0-fd1a-11e8-88fe-005056c00008",
	"fields": {
	  "name": "Huy\u1ec7n Tam N\u00f4ng",
	  "city": "18c2b270-fd1a-11e8-bb85-005056c00008",
	  "lat": 10.7192793,
	  "lon": 105.5474373,
	  "order": 1,
	  "status": true
	}
  },
  {
	"model": "location.district",
	"pk": "1bd98f61-fd1a-11e8-b934-005056c00008",
	"fields": {
	  "name": "Huy\u1ec7n Th\u00e1p M\u01b0\u1eddi",
	  "city": "18c2b270-fd1a-11e8-bb85-005056c00008",
	  "lat": 10.5302706,
	  "lon": 105.8290298,
	  "order": 1,
	  "status": true
	}
  },
  {
	"model": "location.district",
	"pk": "1c0b1c21-fd19-11e8-b011-005056c00008",
	"fields": {
	  "name": "Huy\u1ec7n Con Cu\u00f4ng",
	  "city": "116128f0-fd19-11e8-a899-005056c00008",
	  "lat": 19.0130593,
	  "lon": 104.798771,
	  "order": 1,
	  "status": true
	}
  },
  {
	"model": "location.district",
	"pk": "1c37edf0-fd18-11e8-814f-005056c00008",
	"fields": {
	  "name": "Huy\u1ec7n Nguy\u00ean B\u00ecnh",
	  "city": "13a82830-fd18-11e8-b076-005056c00008",
	  "lat": 22.6230856,
	  "lon": 105.92299,
	  "order": 1,
	  "status": true
	}
  },
  {
	"model": "location.district",
	"pk": "1cadf661-fd1a-11e8-a83a-005056c00008",
	"fields": {
	  "name": "Huy\u1ec7n Cao L\u00e3nh",
	  "city": "18c2b270-fd1a-11e8-bb85-005056c00008",
	  "lat": 10.4659577,
	  "lon": 105.7059785,
	  "order": 1,
	  "status": true
	}
  },
  {
	"model": "location.district",
	"pk": "1cd91a80-fd19-11e8-88c7-005056c00008",
	"fields": {
	  "name": "Huy\u1ec7n T\u00e2n K\u1ef3",
	  "city": "116128f0-fd19-11e8-a899-005056c00008",
	  "lat": 19.0748796,
	  "lon": 105.1726816,
	  "order": 1,
	  "status": true
	}
  },
  {
	"model": "location.district",
	"pk": "1d4e3fee-fd18-11e8-a067-005056c00008",
	"fields": {
	  "name": "Huy\u1ec7n Th\u1ea1ch An",
	  "city": "13a82830-fd18-11e8-b076-005056c00008",
	  "lat": 22.4663561,
	  "lon": 106.3228338,
	  "order": 1,
	  "status": true
	}
  },
  {
	"model": "location.district",
	"pk": "1d803a80-fd1a-11e8-abdb-005056c00008",
	"fields": {
	  "name": "Huy\u1ec7n Thanh B\u00ecnh",
	  "city": "18c2b270-fd1a-11e8-bb85-005056c00008",
	  "lat": 10.6135294,
	  "lon": 105.4771084,
	  "order": 1,
	  "status": true
	}
  },
  {
	"model": "location.district",
	"pk": "1e226df0-fd1a-11e8-8899-005056c00008",
	"fields": {
	  "name": "Huy\u1ec7n L\u1ea5p V\u00f2",
	  "city": "18c2b270-fd1a-11e8-bb85-005056c00008",
	  "lat": 10.3578054,
	  "lon": 105.6308159,
	  "order": 1,
	  "status": true
	}
  },
  {
	"model": "location.district",
	"pk": "1e3a5830-fd19-11e8-ab05-005056c00008",
	"fields": {
	  "name": "Huy\u1ec7n Anh S\u01a1n",
	  "city": "116128f0-fd19-11e8-a899-005056c00008",
	  "lat": 18.9688054,
	  "lon": 105.0557415,
	  "order": 1,
	  "status": true
	}
  },
  {
	"model": "location.district",
	"pk": "1e3d5ae1-fd18-11e8-b010-005056c00008",
	"fields": {
	  "name": "Th\u00e0nh Ph\u1ed1 B\u1eafc K\u1ea1n",
	  "city": "1e267780-fd18-11e8-b92c-005056c00008",
	  "lat": 22.1329032,
	  "lon": 105.8407722,
	  "order": 1,
	  "status": true
	}
  },
  {
	"model": "location.district",
	"pk": "1ebc75f0-fd18-11e8-adf4-005056c00008",
	"fields": {
	  "name": "Huy\u1ec7n P\u00e1c N\u1eb7m",
	  "city": "1e267780-fd18-11e8-b92c-005056c00008",
	  "lat": 22.6126367,
	  "lon": 105.6703226,
	  "order": 1,
	  "status": true
	}
  },
  {
	"model": "location.district",
	"pk": "1ed988f0-fd1a-11e8-9f74-005056c00008",
	"fields": {
	  "name": "Huy\u1ec7n Lai Vung",
	  "city": "18c2b270-fd1a-11e8-bb85-005056c00008",
	  "lat": 10.255455,
	  "lon": 105.6647142,
	  "order": 1,
	  "status": true
	}
  },
  {
	"model": "location.district",
	"pk": "1f4ecade-fd18-11e8-bc58-005056c00008",
	"fields": {
	  "name": "Huy\u1ec7n Ba B\u1ec3",
	  "city": "1e267780-fd18-11e8-b92c-005056c00008",
	  "lat": 22.3636887,
	  "lon": 105.7351171,
	  "order": 1,
	  "status": true
	}
  },
  {
	"model": "location.district",
	"pk": "1f78d630-fd1a-11e8-850b-005056c00008",
	"fields": {
	  "name": "Huy\u1ec7n Ch\u00e2u Th\u00e0nh",
	  "city": "18c2b270-fd1a-11e8-bb85-005056c00008",
	  "lat": 10.2050554,
	  "lon": 105.8055471,
	  "order": 1,
	  "status": true
	}
  },
  {
	"model": "location.district",
	"pk": "1f8b9051-fd19-11e8-854e-005056c00008",
	"fields": {
	  "name": "Huy\u1ec7n Di\u1ec5n Ch\u00e2u",
	  "city": "116128f0-fd19-11e8-a899-005056c00008",
	  "lat": 19.0179688,
	  "lon": 105.5708865,
	  "order": 1,
	  "status": true
	}
  },
  {
	"model": "location.district",
	"pk": "2016008f-fd1a-11e8-a494-005056c00008",
	"fields": {
	  "name": "Th\u00e0nh ph\u1ed1 Long Xuy\u00ean",
	  "city": "200add00-fd1a-11e8-917b-005056c00008",
	  "lat": 10.3759416,
	  "lon": 105.4185406,
	  "order": 1,
	  "status": true
	}
  },
  {
	"model": "location.district",
	"pk": "202aabf0-fd18-11e8-b1bf-005056c00008",
	"fields": {
	  "name": "Huy\u1ec7n Ng\u00e2n S\u01a1n",
	  "city": "1e267780-fd18-11e8-b92c-005056c00008",
	  "lat": 22.4281787,
	  "lon": 106.0169971,
	  "order": 1,
	  "status": true
	}
  },
  {
	"model": "location.district",
	"pk": "20df55ee-fd18-11e8-957e-005056c00008",
	"fields": {
	  "name": "Huy\u1ec7n B\u1ea1ch Th\u00f4ng",
	  "city": "1e267780-fd18-11e8-b92c-005056c00008",
	  "lat": 22.2360787,
	  "lon": 105.8525154,
	  "order": 1,
	  "status": true
	}
  },
  {
	"model": "location.district",
	"pk": "20f3b65e-fd1a-11e8-b25f-005056c00008",
	"fields": {
	  "name": "Th\u00e0nh ph\u1ed1 Ch\u00e2u \u0110\u1ed1c",
	  "city": "200add00-fd1a-11e8-917b-005056c00008",
	  "lat": 10.6820814,
	  "lon": 105.0823967,
	  "order": 1,
	  "status": true
	}
  },
  {
	"model": "location.district",
	"pk": "21669c70-fd1a-11e8-aacb-005056c00008",
	"fields": {
	  "name": "Huy\u1ec7n An Ph\u00fa",
	  "city": "200add00-fd1a-11e8-917b-005056c00008",
	  "lat": 10.8512167,
	  "lon": 105.1025075,
	  "order": 1,
	  "status": true
	}
  },
  {
	"model": "location.district",
	"pk": "218d7acf-fd19-11e8-b6dc-005056c00008",
	"fields": {
	  "name": "Huy\u1ec7n Y\u00ean Th\u00e0nh",
	  "city": "116128f0-fd19-11e8-a899-005056c00008",
	  "lat": 19.0511285,
	  "lon": 105.4536718,
	  "order": 1,
	  "status": true
	}
  },
  {
	"model": "location.district",
	"pk": "21c4109e-fd18-11e8-96d0-005056c00008",
	"fields": {
	  "name": "Huy\u1ec7n Ch\u1ee3 \u0110\u1ed3n",
	  "city": "1e267780-fd18-11e8-b92c-005056c00008",
	  "lat": 22.1964994,
	  "lon": 105.5474373,
	  "order": 1,
	  "status": true
	}
  },
  {
	"model": "location.district",
	"pk": "223250e1-fd1a-11e8-a245-005056c00008",
	"fields": {
	  "name": "Th\u1ecb x\u00e3 T\u00e2n Ch\u00e2u",
	  "city": "200add00-fd1a-11e8-917b-005056c00008",
	  "lat": 10.8026827,
	  "lon": 105.1960795,
	  "order": 1,
	  "status": true
	}
  },
  {
	"model": "location.district",
	"pk": "2308c59e-fd18-11e8-a80a-005056c00008",
	"fields": {
	  "name": "Huy\u1ec7n Ch\u1ee3 M\u1edbi",
	  "city": "1e267780-fd18-11e8-b92c-005056c00008",
	  "lat": 21.9833375,
	  "lon": 105.8290298,
	  "order": 1,
	  "status": true
	}
  },
  {
	"model": "location.district",
	"pk": "231bc680-fd1a-11e8-8975-005056c00008",
	"fields": {
	  "name": "Huy\u1ec7n Ph\u00fa T\u00e2n",
	  "city": "200add00-fd1a-11e8-917b-005056c00008",
	  "lat": 10.5942654,
	  "lon": 105.3528491,
	  "order": 1,
	  "status": true
	}
  },
  {
	"model": "location.district",
	"pk": "23ac6330-fd19-11e8-bd2a-005056c00008",
	"fields": {
	  "name": "Huy\u1ec7n \u0110\u00f4 L\u01b0\u01a1ng",
	  "city": "116128f0-fd19-11e8-a899-005056c00008",
	  "lat": 18.8990982,
	  "lon": 105.336536,
	  "order": 1,
	  "status": true
	}
  },
  {
	"model": "location.district",
	"pk": "23de6521-fd18-11e8-8228-005056c00008",
	"fields": {
	  "name": "Huy\u1ec7n Na R\u00ec",
	  "city": "1e267780-fd18-11e8-b92c-005056c00008",
	  "lat": 22.1406595,
	  "lon": 106.1110501,
	  "order": 1,
	  "status": true
	}
  },
  {
	"model": "location.district",
	"pk": "24173d80-fd1a-11e8-bf09-005056c00008",
	"fields": {
	  "name": "Huy\u1ec7n Ch\u00e2u Ph\u00fa",
	  "city": "200add00-fd1a-11e8-917b-005056c00008",
	  "lat": 10.5630265,
	  "lon": 105.1726816,
	  "order": 1,
	  "status": true
	}
  },
  {
	"model": "location.district",
	"pk": "24d44bf0-fd1a-11e8-b95f-005056c00008",
	"fields": {
	  "name": "Huy\u1ec7n T\u1ecbnh Bi\u00ean",
	  "city": "200add00-fd1a-11e8-917b-005056c00008",
	  "lat": 10.549107,
	  "lon": 105.0089888,
	  "order": 1,
	  "status": true
	}
  },
  {
	"model": "location.district",
	"pk": "253cc730-fd19-11e8-8284-005056c00008",
	"fields": {
	  "name": "Huy\u1ec7n Thanh Ch\u01b0\u01a1ng",
	  "city": "116128f0-fd19-11e8-a899-005056c00008",
	  "lat": 18.6967739,
	  "lon": 105.2662931,
	  "order": 1,
	  "status": true
	}
  },
  {
	"model": "location.district",
	"pk": "253eb870-fd18-11e8-8955-005056c00008",
	"fields": {
	  "name": "Th\u00e0nh ph\u1ed1 Tuy\u00ean Quang",
	  "city": "253346c0-fd18-11e8-be46-005056c00008",
	  "lat": 21.7767246,
	  "lon": 105.2280196,
	  "order": 1,
	  "status": true
	}
  },
  {
	"model": "location.district",
	"pk": "25828d4f-fd1a-11e8-bbee-005056c00008",
	"fields": {
	  "name": "Huy\u1ec7n Tri T\u00f4n",
	  "city": "200add00-fd1a-11e8-917b-005056c00008",
	  "lat": 10.3972321,
	  "lon": 104.9856176,
	  "order": 1,
	  "status": true
	}
  },
  {
	"model": "location.district",
	"pk": "26000ca1-fd18-11e8-b792-005056c00008",
	"fields": {
	  "name": "Huy\u1ec7n L\u00e2m B\u00ecnh",
	  "city": "253346c0-fd18-11e8-be46-005056c00008",
	  "lat": 22.4565907,
	  "lon": 105.2170589,
	  "order": 1,
	  "status": true
	}
  },
  {
	"model": "location.district",
	"pk": "265bfd61-fd1a-11e8-9a13-005056c00008",
	"fields": {
	  "name": "Huy\u1ec7n Ch\u00e2u Th\u00e0nh",
	  "city": "200add00-fd1a-11e8-917b-005056c00008",
	  "lat": 10.4377694,
	  "lon": 105.3892372,
	  "order": 1,
	  "status": true
	}
  },
  {
	"model": "location.district",
	"pk": "267f27b0-fd18-11e8-aaf3-005056c00008",
	"fields": {
	  "name": "Huy\u1ec7n N\u00e0 Hang",
	  "city": "253346c0-fd18-11e8-be46-005056c00008",
	  "lat": 22.4933358,
	  "lon": 105.3599568,
	  "order": 1,
	  "status": true
	}
  },
  {
	"model": "location.district",
	"pk": "26fafc80-fd1a-11e8-8004-005056c00008",
	"fields": {
	  "name": "Huy\u1ec7n Ch\u1ee3 M\u1edbi",
	  "city": "200add00-fd1a-11e8-917b-005056c00008",
	  "lat": 10.4825247,
	  "lon": 105.4771084,
	  "order": 1,
	  "status": true
	}
  },
  {
	"model": "location.district",
	"pk": "273a1340-fd18-11e8-9c0a-005056c00008",
	"fields": {
	  "name": "Huy\u1ec7n Chi\u00eam H\u00f3a",
	  "city": "253346c0-fd18-11e8-be46-005056c00008",
	  "lat": 22.1306765,
	  "lon": 105.2662931,
	  "order": 1,
	  "status": true
	}
  },
  {
	"model": "location.district",
	"pk": "2743bac0-fd19-11e8-be63-005056c00008",
	"fields": {
	  "name": "Huy\u1ec7n Nghi L\u1ed9c",
	  "city": "116128f0-fd19-11e8-a899-005056c00008",
	  "lat": 18.8142042,
	  "lon": 105.5835663,
	  "order": 1,
	  "status": true
	}
  },
  {
	"model": "location.district",
	"pk": "27d975a1-fd1a-11e8-aca7-005056c00008",
	"fields": {
	  "name": "Huy\u1ec7n Tho\u1ea1i S\u01a1n",
	  "city": "200add00-fd1a-11e8-917b-005056c00008",
	  "lat": 10.2595103,
	  "lon": 105.2608002,
	  "order": 1,
	  "status": true
	}
  },
  {
	"model": "location.district",
	"pk": "2897ce80-fd18-11e8-be91-005056c00008",
	"fields": {
	  "name": "Huy\u1ec7n H\u00e0m Y\u00ean",
	  "city": "253346c0-fd18-11e8-be46-005056c00008",
	  "lat": 22.0839452,
	  "lon": 105.027174,
	  "order": 1,
	  "status": true
	}
  },
  {
	"model": "location.district",
	"pk": "28b59a40-fd19-11e8-b99b-005056c00008",
	"fields": {
	  "name": "Huy\u1ec7n Nam \u0110\u00e0n",
	  "city": "116128f0-fd19-11e8-a899-005056c00008",
	  "lat": 18.6983445,
	  "lon": 105.5239912,
	  "order": 1,
	  "status": true
	}
  },
  {
	"model": "location.district",
	"pk": "28e47d00-fd1a-11e8-8bba-005056c00008",
	"fields": {
	  "name": "Th\u00e0nh ph\u1ed1 R\u1ea1ch Gi\u00e1",
	  "city": "28df4ce1-fd1a-11e8-ae27-005056c00008",
	  "lat": 10.021507,
	  "lon": 105.0910974,
	  "order": 1,
	  "status": true
	}
  },
  {
	"model": "location.district",
	"pk": "296d8321-fd1a-11e8-96a8-005056c00008",
	"fields": {
	  "name": "Th\u1ecb x\u00e3 H\u00e0 Ti\u00ean",
	  "city": "28df4ce1-fd1a-11e8-ae27-005056c00008",
	  "lat": 10.381909,
	  "lon": 104.4901728,
	  "order": 1,
	  "status": true
	}
  },
  {
	"model": "location.district",
	"pk": "297f2140-fd18-11e8-9b70-005056c00008",
	"fields": {
	  "name": "Huy\u1ec7n Y\u00ean S\u01a1n",
	  "city": "253346c0-fd18-11e8-be46-005056c00008",
	  "lat": 21.9447986,
	  "lon": 105.2662931,
	  "order": 1,
	  "status": true
	}
  },
  {
	"model": "location.district",
	"pk": "29e47d4f-fd19-11e8-8ad7-005056c00008",
	"fields": {
	  "name": "Huy\u1ec7n H\u01b0ng Nguy\u00ean",
	  "city": "116128f0-fd19-11e8-a899-005056c00008",
	  "lat": 18.6316742,
	  "lon": 105.629523,
	  "order": 1,
	  "status": true
	}
  },
  {
	"model": "location.district",
	"pk": "29e5e770-fd1a-11e8-8f49-005056c00008",
	"fields": {
	  "name": "Huy\u1ec7n Ki\u00ean L\u01b0\u01a1ng",
	  "city": "28df4ce1-fd1a-11e8-ae27-005056c00008",
	  "lat": 10.3043903,
	  "lon": 104.6354631,
	  "order": 1,
	  "status": true
	}
  },
  {
	"model": "location.district",
	"pk": "2a3c44cf-fd1a-11e8-aa03-005056c00008",
	"fields": {
	  "name": "Huy\u1ec7n H\u00f2n \u0110\u1ea5t",
	  "city": "28df4ce1-fd1a-11e8-ae27-005056c00008",
	  "lat": 10.2227003,
	  "lon": 104.9856176,
	  "order": 1,
	  "status": true
	}
  },
  {
	"model": "location.district",
	"pk": "2ae68e8f-fd1a-11e8-bc4b-005056c00008",
	"fields": {
	  "name": "Huy\u1ec7n T\u00e2n Hi\u1ec7p",
	  "city": "28df4ce1-fd1a-11e8-ae27-005056c00008",
	  "lat": 10.1154358,
	  "lon": 105.2834404,
	  "order": 1,
	  "status": true
	}
  },
  {
	"model": "location.district",
	"pk": "2affff70-fd19-11e8-bd8a-005056c00008",
	"fields": {
	  "name": "Th\u1ecb x\u00e3 Ho\u00e0ng Mai",
	  "city": "116128f0-fd19-11e8-a899-005056c00008",
	  "lat": 19.2370094,
	  "lon": 105.7116464,
	  "order": 1,
	  "status": true
	}
  },
  {
	"model": "location.district",
	"pk": "2b31651e-fd18-11e8-85bc-005056c00008",
	"fields": {
	  "name": "Huy\u1ec7n S\u01a1n D\u01b0\u01a1ng",
	  "city": "253346c0-fd18-11e8-be46-005056c00008",
	  "lat": 21.6571812,
	  "lon": 105.3599568,
	  "order": 1,
	  "status": true
	}
  },
  {
	"model": "location.district",
	"pk": "2b6841b0-fd1a-11e8-98c1-005056c00008",
	"fields": {
	  "name": "Huy\u1ec7n Ch\u00e2u Th\u00e0nh",
	  "city": "28df4ce1-fd1a-11e8-ae27-005056c00008",
	  "lat": 9.8889535,
	  "lon": 105.1492869,
	  "order": 1,
	  "status": true
	}
  },
  {
	"model": "location.district",
	"pk": "2b8e83d1-fd19-11e8-9287-005056c00008",
	"fields": {
	  "name": "Th\u00e0nh ph\u1ed1 H\u00e0 T\u0129nh",
	  "city": "2b83ae5e-fd19-11e8-9a8a-005056c00008",
	  "lat": 18.3559537,
	  "lon": 105.8877494,
	  "order": 1,
	  "status": true
	}
  },
  {
	"model": "location.district",
	"pk": "2bdab291-fd1a-11e8-a97e-005056c00008",
	"fields": {
	  "name": "Huy\u1ec7n Gi\u1ed3ng Ri\u1ec1ng",
	  "city": "28df4ce1-fd1a-11e8-ae27-005056c00008",
	  "lat": 9.9238222,
	  "lon": 105.3728845,
	  "order": 1,
	  "status": true
	}
  },
  {
	"model": "location.district",
	"pk": "2c92b7f0-fd1a-11e8-b5e1-005056c00008",
	"fields": {
	  "name": "Huy\u1ec7n G\u00f2 Quao",
	  "city": "28df4ce1-fd1a-11e8-ae27-005056c00008",
	  "lat": 9.7525077,
	  "lon": 105.2897042,
	  "order": 1,
	  "status": true
	}
  },
  {
	"model": "location.district",
	"pk": "2cb43f21-fd19-11e8-937c-005056c00008",
	"fields": {
	  "name": "Th\u1ecb x\u00e3 H\u1ed3ng L\u0129nh",
	  "city": "2b83ae5e-fd19-11e8-9a8a-005056c00008",
	  "lat": 18.5301567,
	  "lon": 105.7064569,
	  "order": 1,
	  "status": true
	}
  },
  {
	"model": "location.district",
	"pk": "2d0fcc9e-fd19-11e8-99f2-005056c00008",
	"fields": {
	  "name": "Huy\u1ec7n H\u01b0\u01a1ng S\u01a1n",
	  "city": "2b83ae5e-fd19-11e8-9a8a-005056c00008",
	  "lat": 18.5118006,
	  "lon": 105.2662931,
	  "order": 1,
	  "status": true
	}
  },
  {
	"model": "location.district",
	"pk": "2d281a21-fd1a-11e8-ab9e-005056c00008",
	"fields": {
	  "name": "Huy\u1ec7n An Bi\u00ean",
	  "city": "28df4ce1-fd1a-11e8-ae27-005056c00008",
	  "lat": 9.8064559,
	  "lon": 105.0557415,
	  "order": 1,
	  "status": true
	}
  },
  {
	"model": "location.district",
	"pk": "2d35e7b0-fd18-11e8-a777-005056c00008",
	"fields": {
	  "name": "Th\u00e0nh ph\u1ed1 L\u00e0o Cai",
	  "city": "2d256cee-fd18-11e8-a96a-005056c00008",
	  "lat": 22.4458835,
	  "lon": 104.0037764,
	  "order": 1,
	  "status": true
	}
  },
  {
	"model": "location.district",
	"pk": "2d9a3cde-fd1a-11e8-b853-005056c00008",
	"fields": {
	  "name": "Huy\u1ec7n An Minh",
	  "city": "28df4ce1-fd1a-11e8-ae27-005056c00008",
	  "lat": 9.6647183,
	  "lon": 104.9495651,
	  "order": 1,
	  "status": true
	}
  },
  {
	"model": "location.district",
	"pk": "2e18315e-fd18-11e8-9074-005056c00008",
	"fields": {
	  "name": "Huy\u1ec7n B\u00e1t X\u00e1t",
	  "city": "2d256cee-fd18-11e8-a96a-005056c00008",
	  "lat": 22.5539336,
	  "lon": 103.682586,
	  "order": 1,
	  "status": true
	}
  },
  {
	"model": "location.district",
	"pk": "2e186d91-fd1a-11e8-8494-005056c00008",
	"fields": {
	  "name": "Huy\u1ec7n V\u0129nh Thu\u1eadn",
	  "city": "28df4ce1-fd1a-11e8-ae27-005056c00008",
	  "lat": 9.5384134,
	  "lon": 105.2428853,
	  "order": 1,
	  "status": true
	}
  },
  {
	"model": "location.district",
	"pk": "2e7b4e11-fd1a-11e8-9aa3-005056c00008",
	"fields": {
	  "name": "Huy\u1ec7n Ph\u00fa Qu\u1ed1c",
	  "city": "28df4ce1-fd1a-11e8-ae27-005056c00008",
	  "lat": 10.1586245,
	  "lon": 103.98402,
	  "order": 1,
	  "status": true
	}
  },
  {
	"model": "location.district",
	"pk": "2ea0309e-fd19-11e8-b68d-005056c00008",
	"fields": {
	  "name": "Huy\u1ec7n \u0110\u1ee9c Th\u1ecd",
	  "city": "2b83ae5e-fd19-11e8-9a8a-005056c00008",
	  "lat": 18.5056718,
	  "lon": 105.6177942,
	  "order": 1,
	  "status": true
	}
  },
  {
	"model": "location.district",
	"pk": "2ef67180-fd1a-11e8-8b59-005056c00008",
	"fields": {
	  "name": "Huy\u1ec7n Ki\u00ean H\u1ea3i",
	  "city": "28df4ce1-fd1a-11e8-ae27-005056c00008",
	  "lat": 9.8091362,
	  "lon": 104.6296338,
	  "order": 1,
	  "status": true
	}
  },
  {
	"model": "location.district",
	"pk": "2f39bc0f-fd1a-11e8-88e7-005056c00008",
	"fields": {
	  "name": "Huy\u1ec7n U Minh Th\u01b0\u1ee3ng",
	  "city": "28df4ce1-fd1a-11e8-ae27-005056c00008",
	  "lat": 9.6311125,
	  "lon": 105.1025075,
	  "order": 1,
	  "status": true
	}
  },
  {
	"model": "location.district",
	"pk": "2f4bcf61-fd18-11e8-ab3d-005056c00008",
	"fields": {
	  "name": "Huy\u1ec7n M\u01b0\u1eddng Kh\u01b0\u01a1ng",
	  "city": "2d256cee-fd18-11e8-a96a-005056c00008",
	  "lat": 22.6785309,
	  "lon": 104.1233667,
	  "order": 1,
	  "status": true
	}
  },
  {
	"model": "location.district",
	"pk": "2f92d88f-fd1a-11e8-b411-005056c00008",
	"fields": {
	  "name": "Huy\u1ec7n Giang Th\u00e0nh",
	  "city": "28df4ce1-fd1a-11e8-ae27-005056c00008",
	  "lat": 10.4771358,
	  "lon": 104.6821048,
	  "order": 1,
	  "status": true
	}
  },
  {
	"model": "location.district",
	"pk": "2ff20f8f-fd1a-11e8-a192-005056c00008",
	"fields": {
	  "name": "Qu\u1eadn Ninh Ki\u1ec1u",
	  "city": "2fe194cf-fd1a-11e8-98d5-005056c00008",
	  "lat": 10.0272537,
	  "lon": 105.7698039,
	  "order": 1,
	  "status": true
	}
  },
  {
	"model": "location.district",
	"pk": "2ffd9330-fd18-11e8-aad9-005056c00008",
	"fields": {
	  "name": "Huy\u1ec7n Si Ma Cai",
	  "city": "2d256cee-fd18-11e8-a96a-005056c00008",
	  "lat": 22.6659838,
	  "lon": 104.262851,
	  "order": 1,
	  "status": true
	}
  },
  {
	"model": "location.district",
	"pk": "301ee15e-fd19-11e8-993b-005056c00008",
	"fields": {
	  "name": "Huy\u1ec7n V\u0169 Quang",
	  "city": "2b83ae5e-fd19-11e8-9a8a-005056c00008",
	  "lat": 18.3365936,
	  "lon": 105.4302383,
	  "order": 1,
	  "status": true
	}
  },
  {
	"model": "location.district",
	"pk": "309f7880-fd18-11e8-a7bb-005056c00008",
	"fields": {
	  "name": "Huy\u1ec7n B\u1eafc H\u00e0",
	  "city": "2d256cee-fd18-11e8-a96a-005056c00008",
	  "lat": 22.4965469,
	  "lon": 104.332644,
	  "order": 1,
	  "status": true
	}
  },
  {
	"model": "location.district",
	"pk": "30a92a8f-fd1a-11e8-91fc-005056c00008",
	"fields": {
	  "name": "Qu\u1eadn \u00d4 M\u00f4n",
	  "city": "2fe194cf-fd1a-11e8-98d5-005056c00008",
	  "lat": 10.1164943,
	  "lon": 105.6326457,
	  "order": 1,
	  "status": true
	}
  },
  {
	"model": "location.district",
	"pk": "30cb9c21-fd19-11e8-a245-005056c00008",
	"fields": {
	  "name": "Huy\u1ec7n Nghi Xu\u00e2n",
	  "city": "2b83ae5e-fd19-11e8-9a8a-005056c00008",
	  "lat": 18.6282217,
	  "lon": 105.8055471,
	  "order": 1,
	  "status": true
	}
  },
  {
	"model": "location.district",
	"pk": "3113fa4f-fd1a-11e8-9c72-005056c00008",
	"fields": {
	  "name": "Qu\u1eadn B\u00ecnh Thu\u1ef7",
	  "city": "2fe194cf-fd1a-11e8-98d5-005056c00008",
	  "lat": 10.0622567,
	  "lon": 105.7381017,
	  "order": 1,
	  "status": true
	}
  },
  {
	"model": "location.district",
	"pk": "3166ae30-fd1a-11e8-80df-005056c00008",
	"fields": {
	  "name": "Qu\u1eadn C\u00e1i R\u0103ng",
	  "city": "2fe194cf-fd1a-11e8-98d5-005056c00008",
	  "lat": 9.9992392,
	  "lon": 105.8043572,
	  "order": 1,
	  "status": true
	}
  },
  {
	"model": "location.district",
	"pk": "31a1cd4f-fd18-11e8-a61a-005056c00008",
	"fields": {
	  "name": "Huy\u1ec7n B\u1ea3o Th\u1eafng",
	  "city": "2d256cee-fd18-11e8-a96a-005056c00008",
	  "lat": 22.3266996,
	  "lon": 104.1466046,
	  "order": 1,
	  "status": true
	}
  },
  {
	"model": "location.district",
	"pk": "31a9c71e-fd19-11e8-a7bd-005056c00008",
	"fields": {
	  "name": "Huy\u1ec7n Can L\u1ed9c",
	  "city": "2b83ae5e-fd19-11e8-9a8a-005056c00008",
	  "lat": 18.4516009,
	  "lon": 105.7116464,
	  "order": 1,
	  "status": true
	}
  },
  {
	"model": "location.district",
	"pk": "31d41600-fd1a-11e8-bb0d-005056c00008",
	"fields": {
	  "name": "Qu\u1eadn Th\u1ed1t N\u1ed1t",
	  "city": "2fe194cf-fd1a-11e8-98d5-005056c00008",
	  "lat": 10.2405338,
	  "lon": 105.5336815,
	  "order": 1,
	  "status": true
	}
  },
  {
	"model": "location.district",
	"pk": "324f6080-fd1a-11e8-84e7-005056c00008",
	"fields": {
	  "name": "Huy\u1ec7n V\u0129nh Th\u1ea1nh",
	  "city": "2fe194cf-fd1a-11e8-98d5-005056c00008",
	  "lat": 10.2322696,
	  "lon": 105.3987034,
	  "order": 1,
	  "status": true
	}
  },
  {
	"model": "location.district",
	"pk": "3262100f-fd18-11e8-b03c-005056c00008",
	"fields": {
	  "name": "Huy\u1ec7n B\u1ea3o Y\u00ean",
	  "city": "2d256cee-fd18-11e8-a96a-005056c00008",
	  "lat": 22.2763301,
	  "lon": 104.4490398,
	  "order": 1,
	  "status": true
	}
  },
  {
	"model": "location.district",
	"pk": "32e5c98f-fd19-11e8-b6d6-005056c00008",
	"fields": {
	  "name": "Huy\u1ec7n H\u01b0\u01a1ng Kh\u00ea",
	  "city": "2b83ae5e-fd19-11e8-9a8a-005056c00008",
	  "lat": 18.2037562,
	  "lon": 105.6412527,
	  "order": 1,
	  "status": true
	}
  },
  {
	"model": "location.district",
	"pk": "330cbd0f-fd1a-11e8-8a5c-005056c00008",
	"fields": {
	  "name": "Huy\u1ec7n C\u1edd \u0110\u1ecf",
	  "city": "2fe194cf-fd1a-11e8-98d5-005056c00008",
	  "lat": 10.0972302,
	  "lon": 105.4304423,
	  "order": 1,
	  "status": true
	}
  },
  {
	"model": "location.district",
	"pk": "3339d270-fd18-11e8-b307-005056c00008",
	"fields": {
	  "name": "Huy\u1ec7n Sa Pa",
	  "city": "2d256cee-fd18-11e8-a96a-005056c00008",
	  "lat": 22.2497168,
	  "lon": 103.9608091,
	  "order": 1,
	  "status": true
	}
  },
  {
	"model": "location.district",
	"pk": "33a4de5e-fd1a-11e8-9cb4-005056c00008",
	"fields": {
	  "name": "Huy\u1ec7n Phong \u0110i\u1ec1n",
	  "city": "2fe194cf-fd1a-11e8-98d5-005056c00008",
	  "lat": 9.9967657,
	  "lon": 105.6686611,
	  "order": 1,
	  "status": true
	}
  },
  {
	"model": "location.district",
	"pk": "33ee11cf-fd19-11e8-bef3-005056c00008",
	"fields": {
	  "name": "Huy\u1ec7n Th\u1ea1ch H\u00e0",
	  "city": "2b83ae5e-fd19-11e8-9a8a-005056c00008",
	  "lat": 18.301316,
	  "lon": 105.8525154,
	  "order": 1,
	  "status": true
	}
  },
  {
	"model": "location.district",
	"pk": "34168bf0-fd1a-11e8-bf80-005056c00008",
	"fields": {
	  "name": "Huy\u1ec7n Th\u1edbi Lai",
	  "city": "2fe194cf-fd1a-11e8-98d5-005056c00008",
	  "lat": 10.0681881,
	  "lon": 105.5599728,
	  "order": 1,
	  "status": true
	}
  },
  {
	"model": "location.district",
	"pk": "3422d2de-fd18-11e8-abc4-005056c00008",
	"fields": {
	  "name": "Huy\u1ec7n V\u0103n B\u00e0n",
	  "city": "2d256cee-fd18-11e8-a96a-005056c00008",
	  "lat": 22.0894109,
	  "lon": 104.1930918,
	  "order": 1,
	  "status": true
	}
  },
  {
	"model": "location.district",
	"pk": "354aff2e-fd18-11e8-b4ad-005056c00008",
	"fields": {
	  "name": "Th\u00e0nh ph\u1ed1 \u0110i\u1ec7n Bi\u00ean Ph\u1ee7",
	  "city": "3541b061-fd18-11e8-bbaf-005056c00008",
	  "lat": 21.4094269,
	  "lon": 103.0355852,
	  "order": 1,
	  "status": true
	}
  },
  {
	"model": "location.district",
	"pk": "357d1640-fd19-11e8-8528-005056c00008",
	"fields": {
	  "name": "Huy\u1ec7n C\u1ea9m Xuy\u00ean",
	  "city": "2b83ae5e-fd19-11e8-9a8a-005056c00008",
	  "lat": 18.1721653,
	  "lon": 106.0169971,
	  "order": 1,
	  "status": true
	}
  },
  {
	"model": "location.district",
	"pk": "35953cae-fd1a-11e8-a2b6-005056c00008",
	"fields": {
	  "name": "Th\u00e0nh ph\u1ed1 V\u1ecb Thanh",
	  "city": "35855e30-fd1a-11e8-952a-005056c00008",
	  "lat": 9.7731921,
	  "lon": 105.4537082,
	  "order": 1,
	  "status": true
	}
  },
  {
	"model": "location.district",
	"pk": "35c2ee4f-fd18-11e8-af38-005056c00008",
	"fields": {
	  "name": "Th\u1ecb X\u00e3 M\u01b0\u1eddng Lay",
	  "city": "3541b061-fd18-11e8-bbaf-005056c00008",
	  "lat": 22.0498734,
	  "lon": 103.1634988,
	  "order": 1,
	  "status": true
	}
  },
  {
	"model": "location.district",
	"pk": "35fd111e-fd18-11e8-8f01-005056c00008",
	"fields": {
	  "name": "Huy\u1ec7n M\u01b0\u1eddng Nh\u00e9",
	  "city": "3541b061-fd18-11e8-bbaf-005056c00008",
	  "lat": 22.0832638,
	  "lon": 102.5757028,
	  "order": 1,
	  "status": true
	}
  },
  {
	"model": "location.district",
	"pk": "3619d600-fd1a-11e8-ac70-005056c00008",
	"fields": {
	  "name": "Th\u1ecb x\u00e3 Ng\u00e3 B\u1ea3y",
	  "city": "35855e30-fd1a-11e8-952a-005056c00008",
	  "lat": 9.8252566,
	  "lon": 105.8172881,
	  "order": 1,
	  "status": true
	}
  },
  {
	"model": "location.district",
	"pk": "366adc30-fd1a-11e8-a55f-005056c00008",
	"fields": {
	  "name": "Huy\u1ec7n Ch\u00e2u Th\u00e0nh A",
	  "city": "35855e30-fd1a-11e8-952a-005056c00008",
	  "lat": 9.926726,
	  "lon": 105.6315594,
	  "order": 1,
	  "status": true
	}
  },
  {
	"model": "location.district",
	"pk": "36929a5e-fd18-11e8-9bdd-005056c00008",
	"fields": {
	  "name": "Huy\u1ec7n M\u01b0\u1eddng Ch\u00e0",
	  "city": "3541b061-fd18-11e8-bbaf-005056c00008",
	  "lat": 21.8596604,
	  "lon": 103.035694,
	  "order": 1,
	  "status": true
	}
  },
  {
	"model": "location.district",
	"pk": "36bf0c21-fd19-11e8-b7a7-005056c00008",
	"fields": {
	  "name": "Huy\u1ec7n K\u1ef3 Anh",
	  "city": "2b83ae5e-fd19-11e8-9a8a-005056c00008",
	  "lat": 18.0559583,
	  "lon": 106.2992912,
	  "order": 1,
	  "status": true
	}
  },
  {
	"model": "location.district",
	"pk": "3712b4ee-fd1a-11e8-b418-005056c00008",
	"fields": {
	  "name": "Huy\u1ec7n Ch\u00e2u Th\u00e0nh",
	  "city": "35855e30-fd1a-11e8-952a-005056c00008",
	  "lat": 9.9216255,
	  "lon": 105.8073554,
	  "order": 1,
	  "status": true
	}
  },
  {
	"model": "location.district",
	"pk": "371c63d1-fd18-11e8-a241-005056c00008",
	"fields": {
	  "name": "Huy\u1ec7n T\u1ee7a Ch\u00f9a",
	  "city": "3541b061-fd18-11e8-bbaf-005056c00008",
	  "lat": 21.9232005,
	  "lon": 103.4049445,
	  "order": 1,
	  "status": true
	}
  },
  {
	"model": "location.district",
	"pk": "379c0930-fd1a-11e8-9a4f-005056c00008",
	"fields": {
	  "name": "Huy\u1ec7n Ph\u1ee5ng Hi\u1ec7p",
	  "city": "35855e30-fd1a-11e8-952a-005056c00008",
	  "lat": 9.7762126,
	  "lon": 105.7116464,
	  "order": 1,
	  "status": true
	}
  },
  {
	"model": "location.district",
	"pk": "37bb62ee-fd18-11e8-970b-005056c00008",
	"fields": {
	  "name": "Huy\u1ec7n Tu\u1ea7n Gi\u00e1o",
	  "city": "3541b061-fd18-11e8-bbaf-005056c00008",
	  "lat": 21.6427019,
	  "lon": 103.4049445,
	  "order": 1,
	  "status": true
	}
  },
  {
	"model": "location.district",
	"pk": "37d02e00-fd19-11e8-b58f-005056c00008",
	"fields": {
	  "name": "Huy\u1ec7n L\u1ed9c H\u00e0",
	  "city": "2b83ae5e-fd19-11e8-9a8a-005056c00008",
	  "lat": 18.4817584,
	  "lon": 105.8994956,
	  "order": 1,
	  "status": true
	}
  },
  {
	"model": "location.district",
	"pk": "387fa7de-fd19-11e8-b663-005056c00008",
	"fields": {
	  "name": "Th\u1ecb x\u00e3 K\u1ef3 Anh",
	  "city": "2b83ae5e-fd19-11e8-9a8a-005056c00008",
	  "lat": 18.0648343,
	  "lon": 106.2963486,
	  "order": 1,
	  "status": true
	}
  },
  {
	"model": "location.district",
	"pk": "3889eba1-fd1a-11e8-bc0d-005056c00008",
	"fields": {
	  "name": "Huy\u1ec7n V\u1ecb Thu\u1ef7",
	  "city": "35855e30-fd1a-11e8-952a-005056c00008",
	  "lat": 9.8260824,
	  "lon": 105.5708865,
	  "order": 1,
	  "status": true
	}
  },
  {
	"model": "location.district",
	"pk": "38a6110f-fd18-11e8-b88e-005056c00008",
	"fields": {
	  "name": "Huy\u1ec7n \u0110i\u1ec7n Bi\u00ean",
	  "city": "3541b061-fd18-11e8-bbaf-005056c00008",
	  "lat": 21.2044768,
	  "lon": 103.035694,
	  "order": 1,
	  "status": true
	}
  },
  {
	"model": "location.district",
	"pk": "39242fcf-fd1a-11e8-9123-005056c00008",
	"fields": {
	  "name": "Huy\u1ec7n Long M\u1ef9",
	  "city": "35855e30-fd1a-11e8-952a-005056c00008",
	  "lat": 9.6552847,
	  "lon": 105.5239912,
	  "order": 1,
	  "status": true
	}
  },
  {
	"model": "location.district",
	"pk": "392ed39e-fd19-11e8-820d-005056c00008",
	"fields": {
	  "name": "Th\u00e0nh Ph\u1ed1 \u0110\u1ed3ng H\u1edbi",
	  "city": "3918174f-fd19-11e8-b672-005056c00008",
	  "lat": 17.4659391,
	  "lon": 106.5983958,
	  "order": 1,
	  "status": true
	}
  },
  {
	"model": "location.district",
	"pk": "39afce00-fd1a-11e8-9701-005056c00008",
	"fields": {
	  "name": "Th\u1ecb x\u00e3 Long M\u1ef9",
	  "city": "35855e30-fd1a-11e8-952a-005056c00008",
	  "lat": 9.669597,
	  "lon": 105.5650239,
	  "order": 1,
	  "status": true
	}
  },
  {
	"model": "location.district",
	"pk": "3a00e621-fd18-11e8-b4af-005056c00008",
	"fields": {
	  "name": "Huy\u1ec7n \u0110i\u1ec7n Bi\u00ean \u0110\u00f4ng",
	  "city": "3541b061-fd18-11e8-bbaf-005056c00008",
	  "lat": 21.2835093,
	  "lon": 103.2201828,
	  "order": 1,
	  "status": true
	}
  },
  {
	"model": "location.district",
	"pk": "3a3b61a1-fd19-11e8-af27-005056c00008",
	"fields": {
	  "name": "Huy\u1ec7n Minh H\u00f3a",
	  "city": "3918174f-fd19-11e8-b672-005056c00008",
	  "lat": 17.719816,
	  "lon": 105.92299,
	  "order": 1,
	  "status": true
	}
  },
  {
	"model": "location.district",
	"pk": "3a4704f0-fd1a-11e8-be9c-005056c00008",
	"fields": {
	  "name": "Th\u00e0nh ph\u1ed1 S\u00f3c Tr\u0103ng",
	  "city": "3a33f221-fd1a-11e8-9d8b-005056c00008",
	  "lat": 9.602521,
	  "lon": 105.9739049,
	  "order": 1,
	  "status": true
	}
  },
  {
	"model": "location.district",
	"pk": "3ac5e3cf-fd18-11e8-95f7-005056c00008",
	"fields": {
	  "name": "Huy\u1ec7n M\u01b0\u1eddng \u1ea2ng",
	  "city": "3541b061-fd18-11e8-bbaf-005056c00008",
	  "lat": 21.5641438,
	  "lon": 103.2201828,
	  "order": 1,
	  "status": true
	}
  },
  {
	"model": "location.district",
	"pk": "3b209c0f-fd1a-11e8-837c-005056c00008",
	"fields": {
	  "name": "Huy\u1ec7n Ch\u00e2u Th\u00e0nh",
	  "city": "3a33f221-fd1a-11e8-9d8b-005056c00008",
	  "lat": 9.6809726,
	  "lon": 105.8994956,
	  "order": 1,
	  "status": true
	}
  },
  {
	"model": "location.district",
	"pk": "3b3997c0-fd19-11e8-a953-005056c00008",
	"fields": {
	  "name": "Huy\u1ec7n Tuy\u00ean H\u00f3a",
	  "city": "3918174f-fd19-11e8-b672-005056c00008",
	  "lat": 17.9319039,
	  "lon": 105.9722814,
	  "order": 1,
	  "status": true
	}
  },
  {
	"model": "location.district",
	"pk": "3b5aa9c0-fd18-11e8-823f-005056c00008",
	"fields": {
	  "name": "Huy\u1ec7n N\u1eadm P\u1ed3",
	  "city": "3541b061-fd18-11e8-bbaf-005056c00008",
	  "lat": 22.1910984,
	  "lon": 102.4614607,
	  "order": 1,
	  "status": true
	}
  },
  {
	"model": "location.district",
	"pk": "3ba7312e-fd1a-11e8-b8f3-005056c00008",
	"fields": {
	  "name": "Huy\u1ec7n K\u1ebf S\u00e1ch",
	  "city": "3a33f221-fd1a-11e8-9d8b-005056c00008",
	  "lat": 9.8310108,
	  "lon": 105.92299,
	  "order": 1,
	  "status": true
	}
  },
  {
	"model": "location.district",
	"pk": "3c280bde-fd18-11e8-990c-005056c00008",
	"fields": {
	  "name": "Th\u00e0nh ph\u1ed1 Lai Ch\u00e2u",
	  "city": "3c13244f-fd18-11e8-9830-005056c00008",
	  "lat": 22.3997565,
	  "lon": 103.4477219,
	  "order": 1,
	  "status": true
	}
  },
  {
	"model": "location.district",
	"pk": "3c57e38f-fd1a-11e8-a121-005056c00008",
	"fields": {
	  "name": "Huy\u1ec7n M\u1ef9 T\u00fa",
	  "city": "3a33f221-fd1a-11e8-9d8b-005056c00008",
	  "lat": 9.599104,
	  "lon": 105.8055471,
	  "order": 1,
	  "status": true
	}
  },
  {
	"model": "location.district",
	"pk": "3c6ff4de-fd19-11e8-94cd-005056c00008",
	"fields": {
	  "name": "Huy\u1ec7n Qu\u1ea3ng Tr\u1ea1ch",
	  "city": "3918174f-fd19-11e8-b672-005056c00008",
	  "lat": 17.8640126,
	  "lon": 106.3934777,
	  "order": 1,
	  "status": true
	}
  },
  {
	"model": "location.district",
	"pk": "3c819d8f-fd18-11e8-aba9-005056c00008",
	"fields": {
	  "name": "Huy\u1ec7n Tam \u0110\u01b0\u1eddng",
	  "city": "3c13244f-fd18-11e8-9830-005056c00008",
	  "lat": 22.3497051,
	  "lon": 103.6131203,
	  "order": 1,
	  "status": true
	}
  },
  {
	"model": "location.district",
	"pk": "3cfab340-fd1a-11e8-9459-005056c00008",
	"fields": {
	  "name": "Huy\u1ec7n C\u00f9 Lao Dung",
	  "city": "3a33f221-fd1a-11e8-9d8b-005056c00008",
	  "lat": 9.5791522,
	  "lon": 106.22868,
	  "order": 1,
	  "status": true
	}
  },
  {
	"model": "location.district",
	"pk": "3d2ad5e1-fd18-11e8-ab8a-005056c00008",
	"fields": {
	  "name": "Huy\u1ec7n M\u01b0\u1eddng T\u00e8",
	  "city": "3c13244f-fd18-11e8-9830-005056c00008",
	  "lat": 22.400379,
	  "lon": 102.7135121,
	  "order": 1,
	  "status": true
	}
  },
  {
	"model": "location.district",
	"pk": "3d681b11-fd1a-11e8-882a-005056c00008",
	"fields": {
	  "name": "Huy\u1ec7n Long Ph\u00fa",
	  "city": "3a33f221-fd1a-11e8-9d8b-005056c00008",
	  "lat": 9.6289421,
	  "lon": 106.0875326,
	  "order": 1,
	  "status": true
	}
  },
  {
	"model": "location.district",
	"pk": "3d850e5e-fd19-11e8-9364-005056c00008",
	"fields": {
	  "name": "Huy\u1ec7n B\u1ed1 Tr\u1ea1ch",
	  "city": "3918174f-fd19-11e8-b672-005056c00008",
	  "lat": 17.5047078,
	  "lon": 106.2992912,
	  "order": 1,
	  "status": true
	}
  },
  {
	"model": "location.district",
	"pk": "3dd8f02e-fd18-11e8-a9f0-005056c00008",
	"fields": {
	  "name": "Huy\u1ec7n S\u00ecn H\u1ed3",
	  "city": "3c13244f-fd18-11e8-9830-005056c00008",
	  "lat": 22.3048884,
	  "lon": 103.3125299,
	  "order": 1,
	  "status": true
	}
  },
  {
	"model": "location.district",
	"pk": "3e2d18c0-fd1a-11e8-b3b2-005056c00008",
	"fields": {
	  "name": "Huy\u1ec7n M\u1ef9 Xuy\u00ean",
	  "city": "3a33f221-fd1a-11e8-9d8b-005056c00008",
	  "lat": 9.4655111,
	  "lon": 105.8994956,
	  "order": 1,
	  "status": true
	}
  },
  {
	"model": "location.district",
	"pk": "3ecdc58f-fd1a-11e8-b41f-005056c00008",
	"fields": {
	  "name": "Th\u1ecb x\u00e3 Ng\u00e3 N\u0103m",
	  "city": "3a33f221-fd1a-11e8-9d8b-005056c00008",
	  "lat": 9.5215171,
	  "lon": 105.6177942,
	  "order": 1,
	  "status": true
	}
  },
  {
	"model": "location.district",
	"pk": "3f2ddc61-fd19-11e8-91ce-005056c00008",
	"fields": {
	  "name": "Huy\u1ec7n Qu\u1ea3ng Ninh",
	  "city": "3918174f-fd19-11e8-b672-005056c00008",
	  "lat": 17.2394584,
	  "lon": 106.4616246,
	  "order": 1,
	  "status": true
	}
  },
  {
	"model": "location.district",
	"pk": "3f3f850f-fd18-11e8-92f7-005056c00008",
	"fields": {
	  "name": "Huy\u1ec7n Phong Th\u1ed5",
	  "city": "3c13244f-fd18-11e8-9830-005056c00008",
	  "lat": 22.5776336,
	  "lon": 103.4049445,
	  "order": 1,
	  "status": true
	}
  },
  {
	"model": "location.district",
	"pk": "3f846b5e-fd1a-11e8-a582-005056c00008",
	"fields": {
	  "name": "Huy\u1ec7n Th\u1ea1nh Tr\u1ecb",
	  "city": "3a33f221-fd1a-11e8-9d8b-005056c00008",
	  "lat": 9.4741407,
	  "lon": 105.7116464,
	  "order": 1,
	  "status": true
	}
  },
  {
	"model": "location.district",
	"pk": "401030a1-fd1a-11e8-804f-005056c00008",
	"fields": {
	  "name": "Th\u1ecb x\u00e3 V\u0129nh Ch\u00e2u",
	  "city": "3a33f221-fd1a-11e8-9d8b-005056c00008",
	  "lat": 9.3249582,
	  "lon": 105.9804542,
	  "order": 1,
	  "status": true
	}
  },
  {
	"model": "location.district",
	"pk": "4010699e-fd18-11e8-b133-005056c00008",
	"fields": {
	  "name": "Huy\u1ec7n Than Uy\u00ean",
	  "city": "3c13244f-fd18-11e8-9830-005056c00008",
	  "lat": 21.8922107,
	  "lon": 103.7752634,
	  "order": 1,
	  "status": true
	}
  },
  {
	"model": "location.district",
	"pk": "40482600-fd19-11e8-a09d-005056c00008",
	"fields": {
	  "name": "Huy\u1ec7n L\u1ec7 Th\u1ee7y",
	  "city": "3918174f-fd19-11e8-b672-005056c00008",
	  "lat": 17.1064913,
	  "lon": 106.676292,
	  "order": 1,
	  "status": true
	}
  },
  {
	"model": "location.district",
	"pk": "40a24961-fd18-11e8-8031-005056c00008",
	"fields": {
	  "name": "Huy\u1ec7n T\u00e2n Uy\u00ean",
	  "city": "3c13244f-fd18-11e8-9830-005056c00008",
	  "lat": 22.0868845,
	  "lon": 103.682586,
	  "order": 1,
	  "status": true
	}
  },
  {
	"model": "location.district",
	"pk": "40c66140-fd1a-11e8-91c3-005056c00008",
	"fields": {
	  "name": "Huy\u1ec7n Tr\u1ea7n \u0110\u1ec1",
	  "city": "3a33f221-fd1a-11e8-9d8b-005056c00008",
	  "lat": 9.49978,
	  "lon": 106.0875326,
	  "order": 1,
	  "status": true
	}
  },
  {
	"model": "location.district",
	"pk": "413e6251-fd18-11e8-b49c-005056c00008",
	"fields": {
	  "name": "Huy\u1ec7n N\u1eadm Nh\u00f9n",
	  "city": "3c13244f-fd18-11e8-9830-005056c00008",
	  "lat": 22.1559988,
	  "lon": 103.0059081,
	  "order": 1,
	  "status": true
	}
  },
  {
	"model": "location.district",
	"pk": "417dca5e-fd1a-11e8-bb05-005056c00008",
	"fields": {
	  "name": "Th\u00e0nh ph\u1ed1 B\u1ea1c Li\u00eau",
	  "city": "417258b0-fd1a-11e8-8bcf-005056c00008",
	  "lat": 9.2573324,
	  "lon": 105.7557791,
	  "order": 1,
	  "status": true
	}
  },
  {
	"model": "location.district",
	"pk": "41d5e761-fd18-11e8-992c-005056c00008",
	"fields": {
	  "name": "Th\u00e0nh ph\u1ed1 S\u01a1n La",
	  "city": "41cbd540-fd18-11e8-a317-005056c00008",
	  "lat": 21.3270341,
	  "lon": 103.9141288,
	  "order": 1,
	  "status": true
	}
  },
  {
	"model": "location.district",
	"pk": "420c9ce1-fd1a-11e8-9624-005056c00008",
	"fields": {
	  "name": "Huy\u1ec7n H\u1ed3ng D\u00e2n",
	  "city": "417258b0-fd1a-11e8-8bcf-005056c00008",
	  "lat": 9.5539029,
	  "lon": 105.45205,
	  "order": 1,
	  "status": true
	}
  },
  {
	"model": "location.district",
	"pk": "4211e980-fd19-11e8-9b13-005056c00008",
	"fields": {
	  "name": "Th\u1ecb x\u00e3 Ba \u0110\u1ed3n",
	  "city": "3918174f-fd19-11e8-b672-005056c00008",
	  "lat": 17.7530355,
	  "lon": 106.4235285,
	  "order": 1,
	  "status": true
	}
  },
  {
	"model": "location.district",
	"pk": "428931cf-fd18-11e8-8d8b-005056c00008",
	"fields": {
	  "name": "Huy\u1ec7n Qu\u1ef3nh Nhai",
	  "city": "41cbd540-fd18-11e8-a317-005056c00008",
	  "lat": 21.7132038,
	  "lon": 103.682586,
	  "order": 1,
	  "status": true
	}
  },
  {
	"model": "location.district",
	"pk": "429ea3ae-fd1a-11e8-93fa-005056c00008",
	"fields": {
	  "name": "Huy\u1ec7n Ph\u01b0\u1edbc Long",
	  "city": "417258b0-fd1a-11e8-8bcf-005056c00008",
	  "lat": 9.4006715,
	  "lon": 105.4302383,
	  "order": 1,
	  "status": true
	}
  },
  {
	"model": "location.district",
	"pk": "43074600-fd19-11e8-bb14-005056c00008",
	"fields": {
	  "name": "Th\u00e0nh ph\u1ed1 \u0110\u00f4ng H\u00e0",
	  "city": "42fe6c5e-fd19-11e8-927d-005056c00008",
	  "lat": 16.8088928,
	  "lon": 107.0893798,
	  "order": 1,
	  "status": true
	}
  },
  {
	"model": "location.district",
	"pk": "4313aca1-fd1a-11e8-8a02-005056c00008",
	"fields": {
	  "name": "Huy\u1ec7n V\u0129nh L\u1ee3i",
	  "city": "417258b0-fd1a-11e8-8bcf-005056c00008",
	  "lat": 9.3450296,
	  "lon": 105.7116464,
	  "order": 1,
	  "status": true
	}
  },
  {
	"model": "location.district",
	"pk": "4321c84f-fd18-11e8-b056-005056c00008",
	"fields": {
	  "name": "Huy\u1ec7n Thu\u1eadn Ch\u00e2u",
	  "city": "41cbd540-fd18-11e8-a317-005056c00008",
	  "lat": 21.3900652,
	  "lon": 103.6362715,
	  "order": 1,
	  "status": true
	}
  },
  {
	"model": "location.district",
	"pk": "43a0d170-fd1a-11e8-834c-005056c00008",
	"fields": {
	  "name": "Th\u1ecb x\u00e3 Gi\u00e1 Rai",
	  "city": "417258b0-fd1a-11e8-8bcf-005056c00008",
	  "lat": 9.260136,
	  "lon": 105.3753129,
	  "order": 1,
	  "status": true
	}
  },
  {
	"model": "location.district",
	"pk": "43a1b140-fd19-11e8-8bd1-005056c00008",
	"fields": {
	  "name": "Th\u1ecb x\u00e3 Qu\u1ea3ng Tr\u1ecb",
	  "city": "42fe6c5e-fd19-11e8-927d-005056c00008",
	  "lat": 16.750563,
	  "lon": 107.1857063,
	  "order": 1,
	  "status": true
	}
  },
  {
	"model": "location.district",
	"pk": "43f50161-fd19-11e8-89bd-005056c00008",
	"fields": {
	  "name": "Huy\u1ec7n V\u0129nh Linh",
	  "city": "42fe6c5e-fd19-11e8-927d-005056c00008",
	  "lat": 17.0743311,
	  "lon": 107.0539434,
	  "order": 1,
	  "status": true
	}
  },
  {
	"model": "location.district",
	"pk": "446f4500-fd1a-11e8-b6e3-005056c00008",
	"fields": {
	  "name": "Huy\u1ec7n \u0110\u00f4ng H\u1ea3i",
	  "city": "417258b0-fd1a-11e8-8bcf-005056c00008",
	  "lat": 9.1630642,
	  "lon": 105.4536718,
	  "order": 1,
	  "status": true
	}
  },
  {
	"model": "location.district",
	"pk": "447e4b0f-fd18-11e8-bfb8-005056c00008",
	"fields": {
	  "name": "Huy\u1ec7n M\u01b0\u1eddng La",
	  "city": "41cbd540-fd18-11e8-a317-005056c00008",
	  "lat": 21.495112,
	  "lon": 104.053676,
	  "order": 1,
	  "status": true
	}
  },
  {
	"model": "location.district",
	"pk": "451abcb0-fd19-11e8-a16c-005056c00008",
	"fields": {
	  "name": "Huy\u1ec7n H\u01b0\u1edbng H\u00f3a",
	  "city": "42fe6c5e-fd19-11e8-927d-005056c00008",
	  "lat": 16.6495512,
	  "lon": 106.676292,
	  "order": 1,
	  "status": true
	}
  },
  {
	"model": "location.district",
	"pk": "4552b20f-fd18-11e8-9f6d-005056c00008",
	"fields": {
	  "name": "Huy\u1ec7n B\u1eafc Y\u00ean",
	  "city": "41cbd540-fd18-11e8-a317-005056c00008",
	  "lat": 21.2765545,
	  "lon": 104.4257533,
	  "order": 1,
	  "status": true
	}
  },
  {
	"model": "location.district",
	"pk": "457c4830-fd1a-11e8-8832-005056c00008",
	"fields": {
	  "name": "Huy\u1ec7n Ho\u00e0 B\u00ecnh",
	  "city": "417258b0-fd1a-11e8-8bcf-005056c00008",
	  "lat": 9.2704595,
	  "lon": 105.5897386,
	  "order": 1,
	  "status": true
	}
  },
  {
	"model": "location.district",
	"pk": "45fdfb51-fd1a-11e8-b5d6-005056c00008",
	"fields": {
	  "name": "Th\u00e0nh ph\u1ed1 C\u00e0 Mau",
	  "city": "45f521b0-fd1a-11e8-9d7f-005056c00008",
	  "lat": 9.1526728,
	  "lon": 105.1960795,
	  "order": 1,
	  "status": true
	}
  },
  {
	"model": "location.district",
	"pk": "46140640-fd18-11e8-96a7-005056c00008",
	"fields": {
	  "name": "Huy\u1ec7n Ph\u00f9 Y\u00ean",
	  "city": "41cbd540-fd18-11e8-a317-005056c00008",
	  "lat": 21.2623608,
	  "lon": 104.6441102,
	  "order": 1,
	  "status": true
	}
  },
  {
	"model": "location.district",
	"pk": "463f8d9e-fd19-11e8-961c-005056c00008",
	"fields": {
	  "name": "Huy\u1ec7n Gio Linh",
	  "city": "42fe6c5e-fd19-11e8-927d-005056c00008",
	  "lat": 16.9165711,
	  "lon": 107.0303221,
	  "order": 1,
	  "status": true
	}
  },
  {
	"model": "location.district",
	"pk": "475fc01e-fd18-11e8-af86-005056c00008",
	"fields": {
	  "name": "Huy\u1ec7n M\u1ed9c Ch\u00e2u",
	  "city": "41cbd540-fd18-11e8-a317-005056c00008",
	  "lat": 20.9220823,
	  "lon": 104.7520939,
	  "order": 1,
	  "status": true
	}
  },
  {
	"model": "location.district",
	"pk": "476616cf-fd1a-11e8-89d3-005056c00008",
	"fields": {
	  "name": "Huy\u1ec7n U Minh",
	  "city": "45f521b0-fd1a-11e8-9d7f-005056c00008",
	  "lat": 9.3554435,
	  "lon": 104.9856176,
	  "order": 1,
	  "status": true
	}
  },
  {
	"model": "location.district",
	"pk": "4776ae0f-fd19-11e8-896c-005056c00008",
	"fields": {
	  "name": "Huy\u1ec7n \u0110a Kr\u00f4ng",
	  "city": "42fe6c5e-fd19-11e8-927d-005056c00008",
	  "lat": 16.5349165,
	  "lon": 106.9594723,
	  "order": 1,
	  "status": true
	}
  },
  {
	"model": "location.district",
	"pk": "48318f0f-fd18-11e8-ba79-005056c00008",
	"fields": {
	  "name": "Huy\u1ec7n Y\u00ean Ch\u00e2u",
	  "city": "41cbd540-fd18-11e8-a317-005056c00008",
	  "lat": 21.0050006,
	  "lon": 104.332644,
	  "order": 1,
	  "status": true
	}
  },
  {
	"model": "location.district",
	"pk": "483fca70-fd19-11e8-a701-005056c00008",
	"fields": {
	  "name": "Huy\u1ec7n Cam L\u1ed9",
	  "city": "42fe6c5e-fd19-11e8-927d-005056c00008",
	  "lat": 16.783695,
	  "lon": 106.9830865,
	  "order": 1,
	  "status": true
	}
  },
  {
	"model": "location.district",
	"pk": "485b2530-fd1a-11e8-b145-005056c00008",
	"fields": {
	  "name": "Huy\u1ec7n Th\u1edbi B\u00ecnh",
	  "city": "45f521b0-fd1a-11e8-9d7f-005056c00008",
	  "lat": 9.3473628,
	  "lon": 105.1726816,
	  "order": 1,
	  "status": true
	}
  },
  {
	"model": "location.district",
	"pk": "48d0bfcf-fd19-11e8-a237-005056c00008",
	"fields": {
	  "name": "Huy\u1ec7n Tri\u1ec7u Phong",
	  "city": "42fe6c5e-fd19-11e8-927d-005056c00008",
	  "lat": 16.809184,
	  "lon": 107.2193578,
	  "order": 1,
	  "status": true
	}
  },
  {
	"model": "location.district",
	"pk": "48fa8461-fd18-11e8-95c2-005056c00008",
	"fields": {
	  "name": "Huy\u1ec7n Mai S\u01a1n",
	  "city": "41cbd540-fd18-11e8-a317-005056c00008",
	  "lat": 21.1219095,
	  "lon": 104.053676,
	  "order": 1,
	  "status": true
	}
  },
  {
	"model": "location.district",
	"pk": "490bd78f-fd1a-11e8-b6d5-005056c00008",
	"fields": {
	  "name": "Huy\u1ec7n Tr\u1ea7n V\u0103n Th\u1eddi",
	  "city": "45f521b0-fd1a-11e8-9d7f-005056c00008",
	  "lat": 9.1009716,
	  "lon": 104.8921668,
	  "order": 1,
	  "status": true
	}
  },
  {
	"model": "location.district",
	"pk": "49de382e-fd19-11e8-b17e-005056c00008",
	"fields": {
	  "name": "Huy\u1ec7n H\u1ea3i L\u0103ng",
	  "city": "42fe6c5e-fd19-11e8-927d-005056c00008",
	  "lat": 16.714002,
	  "lon": 107.2666396,
	  "order": 1,
	  "status": true
	}
  },
  {
	"model": "location.district",
	"pk": "49f1cac0-fd1a-11e8-9313-005056c00008",
	"fields": {
	  "name": "Huy\u1ec7n C\u00e1i N\u01b0\u1edbc",
	  "city": "45f521b0-fd1a-11e8-9d7f-005056c00008",
	  "lat": 8.9867763,
	  "lon": 105.0557415,
	  "order": 1,
	  "status": true
	}
  },
  {
	"model": "location.district",
	"pk": "4a069d30-fd18-11e8-beef-005056c00008",
	"fields": {
	  "name": "Huy\u1ec7n S\u00f4ng M\u00e3",
	  "city": "41cbd540-fd18-11e8-a317-005056c00008",
	  "lat": 21.0593251,
	  "lon": 103.682586,
	  "order": 1,
	  "status": true
	}
  },
  {
	"model": "location.district",
	"pk": "4ae10cc0-fd1a-11e8-a1af-005056c00008",
	"fields": {
	  "name": "Huy\u1ec7n \u0110\u1ea7m D\u01a1i",
	  "city": "45f521b0-fd1a-11e8-9d7f-005056c00008",
	  "lat": 8.9994186,
	  "lon": 105.2662931,
	  "order": 1,
	  "status": true
	}
  },
  {
	"model": "location.district",
	"pk": "4af0e0b0-fd19-11e8-8f1c-005056c00008",
	"fields": {
	  "name": "Huy\u1ec7n C\u1ed3n C\u1ecf",
	  "city": "42fe6c5e-fd19-11e8-927d-005056c00008",
	  "lat": 17.1606501,
	  "lon": 107.3405354,
	  "order": 1,
	  "status": true
	}
  },
  {
	"model": "location.district",
	"pk": "4af542ee-fd18-11e8-aa74-005056c00008",
	"fields": {
	  "name": "Huy\u1ec7n S\u1ed1p C\u1ed9p",
	  "city": "41cbd540-fd18-11e8-a317-005056c00008",
	  "lat": 20.8874516,
	  "lon": 103.4974258,
	  "order": 1,
	  "status": true
	}
  },
  {
	"model": "location.district",
	"pk": "4b0aaa40-fd19-11e8-b110-005056c00008",
	"fields": {
	  "name": "Th\u00e0nh ph\u1ed1 Hu\u1ebf",
	  "city": "4afc525e-fd19-11e8-9c40-005056c00008",
	  "lat": 16.4498,
	  "lon": 107.5623501,
	  "order": 1,
	  "status": true
	}
  },
  {
	"model": "location.district",
	"pk": "4b5da1b0-fd18-11e8-8247-005056c00008",
	"fields": {
	  "name": "Huy\u1ec7n V\u00e2n H\u1ed3",
	  "city": "41cbd540-fd18-11e8-a317-005056c00008",
	  "lat": 20.7931051,
	  "lon": 104.7637619,
	  "order": 1,
	  "status": true
	}
  },
  {
	"model": "location.district",
	"pk": "4bdcd1e1-fd1a-11e8-92ab-005056c00008",
	"fields": {
	  "name": "Huy\u1ec7n N\u0103m C\u0103n",
	  "city": "45f521b0-fd1a-11e8-9d7f-005056c00008",
	  "lat": 8.8153071,
	  "lon": 105.0557415,
	  "order": 1,
	  "status": true
	}
  },
  {
	"model": "location.district",
	"pk": "4c3e169e-fd18-11e8-9ab3-005056c00008",
	"fields": {
	  "name": "Th\u00e0nh ph\u1ed1 Y\u00ean B\u00e1i",
	  "city": "4c2bee30-fd18-11e8-87b7-005056c00008",
	  "lat": 21.7167689,
	  "lon": 104.8985878,
	  "order": 1,
	  "status": true
	}
  },
  {
	"model": "location.district",
	"pk": "4c56e3e1-fd1a-11e8-97a3-005056c00008",
	"fields": {
	  "name": "Huy\u1ec7n Ph\u00fa T\u00e2n",
	  "city": "45f521b0-fd1a-11e8-9d7f-005056c00008",
	  "lat": 8.9291357,
	  "lon": 104.8921668,
	  "order": 1,
	  "status": true
	}
  },
  {
	"model": "location.district",
	"pk": "4c75fa0f-fd19-11e8-b1e8-005056c00008",
	"fields": {
	  "name": "Huy\u1ec7n Phong \u0110i\u1ec1n",
	  "city": "4afc525e-fd19-11e8-9c40-005056c00008",
	  "lat": 16.503112,
	  "lon": 107.3375791,
	  "order": 1,
	  "status": true
	}
  },
  {
	"model": "location.district",
	"pk": "4ccfe470-fd1a-11e8-9d38-005056c00008",
	"fields": {
	  "name": "Huy\u1ec7n Ng\u1ecdc Hi\u1ec3n",
	  "city": "45f521b0-fd1a-11e8-9d7f-005056c00008",
	  "lat": 8.6677256,
	  "lon": 105.0032366,
	  "order": 1,
	  "status": true
	}
  },
  {
	"model": "location.district",
	"pk": "4d40b991-fd18-11e8-a406-005056c00008",
	"fields": {
	  "name": "Th\u1ecb x\u00e3 Ngh\u0129a L\u1ed9",
	  "city": "4c2bee30-fd18-11e8-87b7-005056c00008",
	  "lat": 21.6018769,
	  "lon": 104.5062651,
	  "order": 1,
	  "status": true
	}
  },
  {
	"model": "location.district",
	"pk": "4d5d73e1-fd19-11e8-8cc4-005056c00008",
	"fields": {
	  "name": "Huy\u1ec7n Qu\u1ea3ng \u0110i\u1ec1n",
	  "city": "4afc525e-fd19-11e8-9c40-005056c00008",
	  "lat": 16.5902415,
	  "lon": 107.5150139,
	  "order": 1,
	  "status": true
	}
  },
  {
	"model": "location.district",
	"pk": "4db1f1f0-fd18-11e8-8f6b-005056c00008",
	"fields": {
	  "name": "Huy\u1ec7n L\u1ee5c Y\u00ean",
	  "city": "4c2bee30-fd18-11e8-87b7-005056c00008",
	  "lat": 22.0900049,
	  "lon": 104.705431,
	  "order": 1,
	  "status": true
	}
  },
  {
	"model": "location.district",
	"pk": "4df0da40-fd19-11e8-a0cf-005056c00008",
	"fields": {
	  "name": "Huy\u1ec7n Ph\u00fa Vang",
	  "city": "4afc525e-fd19-11e8-9c40-005056c00008",
	  "lat": 16.491213,
	  "lon": 107.7399345,
	  "order": 1,
	  "status": true
	}
  },
  {
	"model": "location.district",
	"pk": "4f0138cf-fd19-11e8-bdc0-005056c00008",
	"fields": {
	  "name": "Th\u1ecb x\u00e3 H\u01b0\u01a1ng Th\u1ee7y",
	  "city": "4afc525e-fd19-11e8-9c40-005056c00008",
	  "lat": 16.4198395,
	  "lon": 107.6464295,
	  "order": 1,
	  "status": true
	}
  },
  {
	"model": "location.district",
	"pk": "4f0bdc9e-fd18-11e8-9242-005056c00008",
	"fields": {
	  "name": "Huy\u1ec7n V\u0103n Y\u00ean",
	  "city": "4c2bee30-fd18-11e8-87b7-005056c00008",
	  "lat": 21.8698428,
	  "lon": 104.5655273,
	  "order": 1,
	  "status": true
	}
  },
  {
	"model": "location.district",
	"pk": "4faa711e-fd19-11e8-9932-005056c00008",
	"fields": {
	  "name": "Th\u1ecb x\u00e3 H\u01b0\u01a1ng Tr\u00e0",
	  "city": "4afc525e-fd19-11e8-9c40-005056c00008",
	  "lat": 16.420796,
	  "lon": 107.5031811,
	  "order": 1,
	  "status": true
	}
  },
  {
	"model": "location.district",
	"pk": "5076c1cf-fd19-11e8-9ded-005056c00008",
	"fields": {
	  "name": "Huy\u1ec7n A L\u01b0\u1edbi",
	  "city": "4afc525e-fd19-11e8-9c40-005056c00008",
	  "lat": 16.2303741,
	  "lon": 107.3375791,
	  "order": 1,
	  "status": true
	}
  },
  {
	"model": "location.district",
	"pk": "5086bccf-fd18-11e8-89c0-005056c00008",
	"fields": {
	  "name": "Huy\u1ec7n M\u00f9 C\u0103ng Ch\u1ea3i",
	  "city": "4c2bee30-fd18-11e8-87b7-005056c00008",
	  "lat": 21.7670046,
	  "lon": 104.1466046,
	  "order": 1,
	  "status": true
	}
  },
  {
	"model": "location.district",
	"pk": "513f8580-fd18-11e8-a719-005056c00008",
	"fields": {
	  "name": "Huy\u1ec7n Tr\u1ea5n Y\u00ean",
	  "city": "4c2bee30-fd18-11e8-87b7-005056c00008",
	  "lat": 21.6160083,
	  "lon": 104.798771,
	  "order": 1,
	  "status": true
	}
  },
  {
	"model": "location.district",
	"pk": "518b6621-fd19-11e8-8b36-005056c00008",
	"fields": {
	  "name": "Huy\u1ec7n Ph\u00fa L\u1ed9c",
	  "city": "4afc525e-fd19-11e8-9c40-005056c00008",
	  "lat": 16.2725431,
	  "lon": 107.9394761,
	  "order": 1,
	  "status": true
	}
  },
  {
	"model": "location.district",
	"pk": "5249f09e-fd18-11e8-a9f3-005056c00008",
	"fields": {
	  "name": "Huy\u1ec7n Tr\u1ea1m T\u1ea5u",
	  "city": "4c2bee30-fd18-11e8-87b7-005056c00008",
	  "lat": 21.4629385,
	  "lon": 104.4257533,
	  "order": 1,
	  "status": true
	}
  },
  {
	"model": "location.district",
	"pk": "527d191e-fd19-11e8-9aee-005056c00008",
	"fields": {
	  "name": "Huy\u1ec7n Nam \u0110\u00f4ng",
	  "city": "4afc525e-fd19-11e8-9c40-005056c00008",
	  "lat": 16.1249688,
	  "lon": 107.6707417,
	  "order": 1,
	  "status": true
	}
  },
  {
	"model": "location.district",
	"pk": "52edaaae-fd18-11e8-9491-005056c00008",
	"fields": {
	  "name": "Huy\u1ec7n V\u0103n Ch\u1ea5n",
	  "city": "4c2bee30-fd18-11e8-87b7-005056c00008",
	  "lat": 21.4298431,
	  "lon": 104.798771,
	  "order": 1,
	  "status": true
	}
  },
  {
	"model": "location.district",
	"pk": "531847b0-fd19-11e8-8db2-005056c00008",
	"fields": {
	  "name": "Qu\u1eadn Li\u00ean Chi\u1ec3u",
	  "city": "530cd600-fd19-11e8-9ffd-005056c00008",
	  "lat": 16.0717704,
	  "lon": 108.1503823,
	  "order": 1,
	  "status": true
	}
  },
  {
	"model": "location.district",
	"pk": "5370049e-fd19-11e8-9696-005056c00008",
	"fields": {
	  "name": "Qu\u1eadn Thanh Kh\u00ea",
	  "city": "530cd600-fd19-11e8-9ffd-005056c00008",
	  "lat": 16.0641802,
	  "lon": 108.1873407,
	  "order": 1,
	  "status": true
	}
  },
  {
	"model": "location.district",
	"pk": "54025991-fd19-11e8-aec0-005056c00008",
	"fields": {
	  "name": "Qu\u1eadn H\u1ea3i Ch\u00e2u",
	  "city": "530cd600-fd19-11e8-9ffd-005056c00008",
	  "lat": 16.0472002,
	  "lon": 108.2199588,
	  "order": 1,
	  "status": true
	}
  },
  {
	"model": "location.district",
	"pk": "54707a1e-fd18-11e8-b240-005056c00008",
	"fields": {
	  "name": "Huy\u1ec7n Y\u00ean B\u00ecnh",
	  "city": "4c2bee30-fd18-11e8-87b7-005056c00008",
	  "lat": 21.7850519,
	  "lon": 104.9856176,
	  "order": 1,
	  "status": true
	}
  },
  {
	"model": "location.district",
	"pk": "54b94d80-fd19-11e8-a3d5-005056c00008",
	"fields": {
	  "name": "Qu\u1eadn S\u01a1n Tr\u00e0",
	  "city": "530cd600-fd19-11e8-9ffd-005056c00008",
	  "lat": 16.1069981,
	  "lon": 108.2521815,
	  "order": 1,
	  "status": true
	}
  },
  {
	"model": "location.district",
	"pk": "5541b761-fd19-11e8-bcb8-005056c00008",
	"fields": {
	  "name": "Qu\u1eadn Ng\u0169 H\u00e0nh S\u01a1n",
	  "city": "530cd600-fd19-11e8-9ffd-005056c00008",
	  "lat": 15.9955056,
	  "lon": 108.2588049,
	  "order": 1,
	  "status": true
	}
  },
  {
	"model": "location.district",
	"pk": "5574390f-fd19-11e8-b630-005056c00008",
	"fields": {
	  "name": "Qu\u1eadn C\u1ea9m L\u1ec7",
	  "city": "530cd600-fd19-11e8-9ffd-005056c00008",
	  "lat": 16.0153669,
	  "lon": 108.1962362,
	  "order": 1,
	  "status": true
	}
  },
  {
	"model": "location.district",
	"pk": "55cfc68f-fd19-11e8-8843-005056c00008",
	"fields": {
	  "name": "Huy\u1ec7n H\u00f2a Vang",
	  "city": "530cd600-fd19-11e8-9ffd-005056c00008",
	  "lat": 15.999988,
	  "lon": 108.1457994,
	  "order": 1,
	  "status": true
	}
  },
  {
	"model": "location.district",
	"pk": "55d4c50f-fd18-11e8-882d-005056c00008",
	"fields": {
	  "name": "Th\u00e0nh ph\u1ed1 H\u00f2a B\u00ecnh",
	  "city": "55c0eeee-fd18-11e8-b0ce-005056c00008",
	  "lat": 20.828578,
	  "lon": 105.3380302,
	  "order": 1,
	  "status": true
	}
  },
  {
	"model": "location.district",
	"pk": "5665ec0f-fd19-11e8-9463-005056c00008",
	"fields": {
	  "name": "Huy\u1ec7n Ho\u00e0ng Sa",
	  "city": "530cd600-fd19-11e8-9ffd-005056c00008",
	  "lat": 16.064571,
	  "lon": 108.222148,
	  "order": 1,
	  "status": true
	}
  },
  {
	"model": "location.district",
	"pk": "5680a000-fd19-11e8-a255-005056c00008",
	"fields": {
	  "name": "Th\u00e0nh ph\u1ed1 Tam K\u1ef3",
	  "city": "5673cec0-fd19-11e8-b7bd-005056c00008",
	  "lat": 15.5638825,
	  "lon": 108.4786313,
	  "order": 1,
	  "status": true
	}
  },
  {
	"model": "location.district",
	"pk": "56a8b6de-fd18-11e8-a3f7-005056c00008",
	"fields": {
	  "name": "Huy\u1ec7n \u0110\u00e0 B\u1eafc",
	  "city": "55c0eeee-fd18-11e8-b0ce-005056c00008",
	  "lat": 20.8381545,
	  "lon": 105.1726816,
	  "order": 1,
	  "status": true
	}
  },
  {
	"model": "location.district",
	"pk": "573793f0-fd19-11e8-8f03-005056c00008",
	"fields": {
	  "name": "Th\u00e0nh ph\u1ed1 H\u1ed9i An",
	  "city": "5673cec0-fd19-11e8-b7bd-005056c00008",
	  "lat": 15.8800584,
	  "lon": 108.3380469,
	  "order": 1,
	  "status": true
	}
  },
  {
	"model": "location.district",
	"pk": "57bee1cf-fd18-11e8-a4a7-005056c00008",
	"fields": {
	  "name": "Huy\u1ec7n K\u1ef3 S\u01a1n",
	  "city": "55c0eeee-fd18-11e8-b0ce-005056c00008",
	  "lat": 20.9030231,
	  "lon": 105.3932378,
	  "order": 1,
	  "status": true
	}
  },
  {
	"model": "location.district",
	"pk": "58008940-fd19-11e8-871d-005056c00008",
	"fields": {
	  "name": "Huy\u1ec7n T\u00e2y Giang",
	  "city": "5673cec0-fd19-11e8-b7bd-005056c00008",
	  "lat": 15.8852628,
	  "lon": 107.4890302,
	  "order": 1,
	  "status": true
	}
  },
  {
	"model": "location.district",
	"pk": "584d3f21-fd18-11e8-a069-005056c00008",
	"fields": {
	  "name": "Huy\u1ec7n L\u01b0\u01a1ng S\u01a1n",
	  "city": "55c0eeee-fd18-11e8-b0ce-005056c00008",
	  "lat": 20.871913,
	  "lon": 105.5040269,
	  "order": 1,
	  "status": true
	}
  },
  {
	"model": "location.district",
	"pk": "58b66bc0-fd19-11e8-b7cd-005056c00008",
	"fields": {
	  "name": "Huy\u1ec7n \u0110\u00f4ng Giang",
	  "city": "5673cec0-fd19-11e8-b7bd-005056c00008",
	  "lat": 15.9660249,
	  "lon": 107.7831632,
	  "order": 1,
	  "status": true
	}
  },
  {
	"model": "location.district",
	"pk": "59527a1e-fd18-11e8-96db-005056c00008",
	"fields": {
	  "name": "Huy\u1ec7n Kim B\u00f4i",
	  "city": "55c0eeee-fd18-11e8-b0ce-005056c00008",
	  "lat": 20.6901132,
	  "lon": 105.5239912,
	  "order": 1,
	  "status": true
	}
  },
  {
	"model": "location.district",
	"pk": "5973c851-fd19-11e8-93fe-005056c00008",
	"fields": {
	  "name": "Huy\u1ec7n \u0110\u1ea1i L\u1ed9c",
	  "city": "5673cec0-fd19-11e8-b7bd-005056c00008",
	  "lat": 15.8497875,
	  "lon": 108.0668661,
	  "order": 1,
	  "status": true
	}
  },
  {
	"model": "location.district",
	"pk": "5a7ecfb0-fd19-11e8-b5f0-005056c00008",
	"fields": {
	  "name": "Th\u1ecb x\u00e3 \u0110i\u1ec7n B\u00e0n",
	  "city": "5673cec0-fd19-11e8-b7bd-005056c00008",
	  "lat": 15.9072569,
	  "lon": 108.224595,
	  "order": 1,
	  "status": true
	}
  },
  {
	"model": "location.district",
	"pk": "5ae1ccb0-fd18-11e8-8053-005056c00008",
	"fields": {
	  "name": "Huy\u1ec7n Cao Phong",
	  "city": "55c0eeee-fd18-11e8-b0ce-005056c00008",
	  "lat": 20.7072205,
	  "lon": 105.336536,
	  "order": 1,
	  "status": true
	}
  },
  {
	"model": "location.district",
	"pk": "5b956540-fd18-11e8-8f50-005056c00008",
	"fields": {
	  "name": "Huy\u1ec7n T\u00e2n L\u1ea1c",
	  "city": "55c0eeee-fd18-11e8-b0ce-005056c00008",
	  "lat": 20.6228033,
	  "lon": 105.2428853,
	  "order": 1,
	  "status": true
	}
  },
  {
	"model": "location.district",
	"pk": "5b9bb15e-fd19-11e8-8c83-005056c00008",
	"fields": {
	  "name": "Huy\u1ec7n Duy Xuy\u00ean",
	  "city": "5673cec0-fd19-11e8-b7bd-005056c00008",
	  "lat": 15.77511,
	  "lon": 108.1665855,
	  "order": 1,
	  "status": true
	}
  },
  {
	"model": "location.district",
	"pk": "5c619970-fd19-11e8-ba4a-005056c00008",
	"fields": {
	  "name": "Huy\u1ec7n Qu\u1ebf S\u01a1n",
	  "city": "5673cec0-fd19-11e8-b7bd-005056c00008",
	  "lat": 15.6848385,
	  "lon": 108.1665855,
	  "order": 1,
	  "status": true
	}
  },
  {
	"model": "location.district",
	"pk": "5cd426cf-fd18-11e8-bd85-005056c00008",
	"fields": {
	  "name": "Huy\u1ec7n Mai Ch\u00e2u",
	  "city": "55c0eeee-fd18-11e8-b0ce-005056c00008",
	  "lat": 20.6901339,
	  "lon": 105.0089888,
	  "order": 1,
	  "status": true
	}
  },
  {
	"model": "location.district",
	"pk": "5d2d9c00-fd19-11e8-8402-005056c00008",
	"fields": {
	  "name": "Huy\u1ec7n Nam Giang",
	  "city": "5673cec0-fd19-11e8-b7bd-005056c00008",
	  "lat": 15.6628546,
	  "lon": 107.6215321,
	  "order": 1,
	  "status": true
	}
  },
  {
	"model": "location.district",
	"pk": "5de9e71e-fd19-11e8-b61e-005056c00008",
	"fields": {
	  "name": "Huy\u1ec7n Ph\u01b0\u1edbc S\u01a1n",
	  "city": "5673cec0-fd19-11e8-b7bd-005056c00008",
	  "lat": 15.3762517,
	  "lon": 107.811,
	  "order": 1,
	  "status": true
	}
  },
  {
	"model": "location.district",
	"pk": "5e269770-fd18-11e8-b4f4-005056c00008",
	"fields": {
	  "name": "Huy\u1ec7n L\u1ea1c S\u01a1n",
	  "city": "55c0eeee-fd18-11e8-b0ce-005056c00008",
	  "lat": 20.4413353,
	  "lon": 105.4536718,
	  "order": 1,
	  "status": true
	}
  },
  {
	"model": "location.district",
	"pk": "5e96a1de-fd19-11e8-bea6-005056c00008",
	"fields": {
	  "name": "Huy\u1ec7n Hi\u1ec7p \u0110\u1ee9c",
	  "city": "5673cec0-fd19-11e8-b7bd-005056c00008",
	  "lat": 15.5590682,
	  "lon": 108.0805694,
	  "order": 1,
	  "status": true
	}
  },
  {
	"model": "location.district",
	"pk": "5f424b2e-fd19-11e8-a841-005056c00008",
	"fields": {
	  "name": "Huy\u1ec7n Th\u0103ng B\u00ecnh",
	  "city": "5673cec0-fd19-11e8-b7bd-005056c00008",
	  "lat": 15.6890346,
	  "lon": 108.3801314,
	  "order": 1,
	  "status": true
	}
  },
  {
	"model": "location.district",
	"pk": "5fd6b870-fd18-11e8-8843-005056c00008",
	"fields": {
	  "name": "Huy\u1ec7n Y\u00ean Th\u1ee7y",
	  "city": "55c0eeee-fd18-11e8-b0ce-005056c00008",
	  "lat": 20.4032247,
	  "lon": 105.6177942,
	  "order": 1,
	  "status": true
	}
  },
  {
	"model": "location.district",
	"pk": "60855280-fd19-11e8-bf0d-005056c00008",
	"fields": {
	  "name": "Huy\u1ec7n Ti\u00ean Ph\u01b0\u1edbc",
	  "city": "5673cec0-fd19-11e8-b7bd-005056c00008",
	  "lat": 15.4964006,
	  "lon": 108.2614775,
	  "order": 1,
	  "status": true
	}
  },
  {
	"model": "location.district",
	"pk": "6095748f-fd18-11e8-b0b1-005056c00008",
	"fields": {
	  "name": "Huy\u1ec7n L\u1ea1c Th\u1ee7y",
	  "city": "55c0eeee-fd18-11e8-b0ce-005056c00008",
	  "lat": 20.5136724,
	  "lon": 105.7333455,
	  "order": 1,
	  "status": true
	}
  },